[{
  "airport_code": "KSFO",
  "alternate_ident": "SFO",
  "name": "San Francisco Int'l",
  "elevation": 13,
  "city": "San Francisco",
  "state": "CA",
  "longitude": -122.3754167,
  "latitude": 37.6188056,
  "timezone": "America/Los_Angeles",
  "country_code": "US",
  "wiki_url": "http://en.wikipedia.org/wiki/San_Francisco_International_Airport",
  "airport_flights_url": "/airports/KSFO/flights"
},
{
  "airport_code": "KJFK",
  "alternate_ident": "JFK",
  "name": "John F Kennedy Intl",
  "elevation": 13,
  "city": "New York",
  "state": "NY",
  "longitude": -73.7786925,
  "latitude": 40.6399278,
  "timezone": "America/New_York",
  "country_code": "US",
  "wiki_url": "http://en.wikipedia.org/wiki/John_F_Kennedy_International",
  "airport_flights_url": "/airports/KJFK/flights"
},
{
  "airport_code": "KLAS",
  "alternate_ident": "LAS",
  "name": "Harry Reid Intl",
  "elevation": 2181,
  "city": "Las Vegas",
  "state": "NV",
  "longitude": -115.1522347,
  "latitude": 36.0800439,
  "timezone": "America/Los_Angeles",
  "country_code": "US",
  "wiki_url": "http://en.wikipedia.org/wiki/McCarran_International_Airport",
  "airport_flights_url": "/airports/KLAS/flights"
},
{
  "airport_code": "KVNY",
  "alternate_ident": "VNY",
  "name": "Van Nuys",
  "elevation": 802,
  "city": "Van Nuys",
  "state": "CA",
  "longitude": -118.4899722,
  "latitude": 34.2098056,
  "timezone": "America/Los_Angeles",
  "country_code": "US",
  "wiki_url": "http://en.wikipedia.org/wiki/Van_Nuys_Airport",
  "airport_flights_url": "/airports/KVNY/flights"
},
{
  "airport_code": "KSEA",
  "alternate_ident": "SEA",
  "name": "Seattle-Tacoma Intl",
  "elevation": 432,
  "city": "Seattle",
  "state": "WA",
  "longitude": -122.3117778,
  "latitude": 47.4498889,
  "timezone": "America/Los_Angeles",
  "country_code": "US",
  "wiki_url": "http://en.wikipedia.org/wiki/Seattle-Tacoma_International_Airport",
  "airport_flights_url": "/airports/KSEA/flights"
},
{
  "airport_code": "KPSP",
  "alternate_ident": "PSP",
  "name": "Palm Springs Intl",
  "elevation": 476,
  "city": "Palm Springs",
  "state": "CA",
  "longitude": -116.5066944,
  "latitude": 33.8296667,
  "timezone": "America/Los_Angeles",
  "country_code": "US",
  "wiki_url": "http://en.wikipedia.org/wiki/Palm_Springs_International_Airport",
  "airport_flights_url": "/airports/KPSP/flights"
},
{
  "airport_code": "KPHX",
  "alternate_ident": "PHX",
  "name": "Phoenix Sky Harbor Intl",
  "elevation": 1134,
  "city": "Phoenix",
  "state": "AZ",
  "longitude": -112.0115833,
  "latitude": 33.4342778,
  "timezone": "America/Phoenix",
  "country_code": "US",
  "wiki_url": "http://en.wikipedia.org/wiki/Phoenix_Sky_Harbor_International_Airport",
  "airport_flights_url": "/airports/KPHX/flights"
},
{
  "airport_code": "KPDX",
  "alternate_ident": "PDX",
  "name": "Portland Intl",
  "elevation": 30,
  "city": "Portland",
  "state": "OR",
  "longitude": -122.5968694,
  "latitude": 45.5887089,
  "timezone": "America/Los_Angeles",
  "country_code": "US",
  "wiki_url": "http://en.wikipedia.org/wiki/Portland_International_Airport",
  "airport_flights_url": "/airports/KPDX/flights"
},
{
  "airport_code": "KLAX",
  "alternate_ident": "LAX",
  "name": "Los Angeles Intl",
  "elevation": 127,
  "city": "Los Angeles",
  "state": "CA",
  "longitude": -118.4080486,
  "latitude": 33.9424964,
  "timezone": "America/Los_Angeles",
  "country_code": "US",
  "wiki_url": "http://en.wikipedia.org/wiki/Los_Angeles_International_Airport",
  "airport_flights_url": "/airports/KLAX/flights"
},
{
  "airport_code": "KGEG",
  "alternate_ident": "GEG",
  "name": "Spokane Intl",
  "elevation": 2385,
  "city": "Spokane",
  "state": "WA",
  "longitude": -117.5352222,
  "latitude": 47.6190278,
  "timezone": "America/Los_Angeles",
  "country_code": "US",
  "wiki_url": "http://en.wikipedia.org/wiki/Spokane_International_Airport",
  "airport_flights_url": "/airports/KGEG/flights"
},
{
  "airport_code": "KATL",
  "alternate_ident": "ATL",
  "name": "Hartsfield-Jackson Intl",
  "elevation": 1026,
  "city": "Atlanta",
  "state": "GA",
  "longitude": -84.427864,
  "latitude": 33.6366996,
  "timezone": "America/New_York",
  "country_code": "US",
  "wiki_url": "http://en.wikipedia.org/wiki/Hartsfield-Jackson_International_Airport",
  "airport_flights_url": "/airports/KATL/flights"
},
{
  "airport_code": "PHOG",
  "alternate_ident": "OGG",
  "name": "Kahului",
  "elevation": 55,
  "city": "Kahului",
  "state": "HI",
  "longitude": -156.4304586,
  "latitude": 20.8986486,
  "timezone": "Pacific/Honolulu",
  "country_code": "US",
  "wiki_url": "http://en.wikipedia.org/wiki/Kahului_Airport",
  "airport_flights_url": "/airports/PHOG/flights"
},
{
  "airport_code": "KSBP",
  "alternate_ident": "SBP",
  "name": "San Luis County Rgnl",
  "elevation": 212,
  "city": "San Luis Obispo",
  "state": "CA",
  "longitude": -120.6426111,
  "latitude": 35.2372778,
  "timezone": "America/Los_Angeles",
  "country_code": "US",
  "wiki_url": "http://en.wikipedia.org/wiki/San_Luis_County_Regional_Airport",
  "airport_flights_url": "/airports/KSBP/flights"
},
{
  "airport_code": "KSAN",
  "alternate_ident": "SAN",
  "name": "San Diego Intl",
  "elevation": 16,
  "city": "San Diego",
  "state": "CA",
  "longitude": -117.1896667,
  "latitude": 32.7335556,
  "timezone": "America/Los_Angeles",
  "country_code": "US",
  "wiki_url": "http://en.wikipedia.org/wiki/San_Diego_International",
  "airport_flights_url": "/airports/KSAN/flights"
},
{
  "airport_code": "KSLC",
  "alternate_ident": "SLC",
  "name": "Salt Lake City Intl",
  "elevation": 4230,
  "city": "Salt Lake City",
  "state": "UT",
  "longitude": -111.9777733,
  "latitude": 40.7883933,
  "timezone": "America/Denver",
  "country_code": "US",
  "wiki_url": "http://en.wikipedia.org/wiki/Salt_Lake_City_International",
  "airport_flights_url": "/airports/KSLC/flights"
},
{
  "airport_code": "KRDD",
  "alternate_ident": "RDD",
  "name": "Redding Muni",
  "elevation": 504,
  "city": "Redding",
  "state": "CA",
  "longitude": -122.2933889,
  "latitude": 40.5089722,
  "timezone": "America/Los_Angeles",
  "country_code": "US",
  "wiki_url": "http://en.wikipedia.org/wiki/Redding_Municipal_Airport",
  "airport_flights_url": "/airports/KRDD/flights"
},
{
  "airport_code": "KBOS",
  "alternate_ident": "BOS",
  "name": "Boston Logan Intl",
  "elevation": 19,
  "city": "Boston",
  "state": "MA",
  "longitude": -71.0063889,
  "latitude": 42.3629444,
  "timezone": "America/New_York",
  "country_code": "US",
  "wiki_url": "http://en.wikipedia.org/wiki/Boston_Logan_International_Airport",
  "airport_flights_url": "/airports/KBOS/flights"
},
{
  "airport_code": "KJAC",
  "alternate_ident": "JAC",
  "name": "Jackson Hole",
  "elevation": 6450,
  "city": "Jackson",
  "state": "WY",
  "longitude": -110.73775,
  "latitude": 43.6073333,
  "timezone": "America/Denver",
  "country_code": "US",
  "wiki_url": "http://en.wikipedia.org/wiki/Jackson_Hole_Airport",
  "airport_flights_url": "/airports/KJAC/flights"
},
{
  "airport_code": "KCLT",
  "alternate_ident": "CLT",
  "name": "Charlotte/Douglas Intl",
  "elevation": 747,
  "city": "Charlotte",
  "state": "NC",
  "longitude": -80.9490556,
  "latitude": 35.21375,
  "timezone": "America/New_York",
  "country_code": "US",
  "wiki_url": "http://en.wikipedia.org/wiki/Charlotte/Douglas_International_Airport",
  "airport_flights_url": "/airports/KCLT/flights"
},
{
  "airport_code": "KDTW",
  "alternate_ident": "DTW",
  "name": "Detroit Metro Wayne Co",
  "elevation": 645,
  "city": "Detroit",
  "state": "MI",
  "longitude": -83.3533889,
  "latitude": 42.2124444,
  "timezone": "America/New_York",
  "country_code": "US",
  "wiki_url": "http://en.wikipedia.org/wiki/Detroit_Metropolitan_Wayne_County_Airport",
  "airport_flights_url": "/airports/KDTW/flights"
},
{
  "airport_code": "KIAH",
  "alternate_ident": "IAH",
  "name": "Houston Bush Int'ctl",
  "elevation": 95,
  "city": "Houston",
  "state": "TX",
  "longitude": -95.3414425,
  "latitude": 29.9844353,
  "timezone": "America/Chicago",
  "country_code": "US",
  "wiki_url": "http://en.wikipedia.org/wiki/George_Bush_Intercontinental_Airport",
  "airport_flights_url": "/airports/KIAH/flights"
},
{
  "airport_code": "KORD",
  "alternate_ident": "ORD",
  "name": "Chicago O'Hare Intl",
  "elevation": 680,
  "city": "Chicago",
  "state": "IL",
  "longitude": -87.9081497,
  "latitude": 41.9769403,
  "timezone": "America/Chicago",
  "country_code": "US",
  "wiki_url": "http://en.wikipedia.org/wiki/O%27Hare_International_Airport",
  "airport_flights_url": "/airports/KORD/flights"
},
{
  "airport_code": "KBUR",
  "alternate_ident": "BUR",
  "name": "Bob Hope",
  "elevation": 778,
  "city": "Burbank",
  "state": "CA",
  "longitude": -118.3586667,
  "latitude": 34.2006944,
  "timezone": "America/Los_Angeles",
  "country_code": "US",
  "wiki_url": "http://en.wikipedia.org/wiki/Bob_Hope_Airport",
  "airport_flights_url": "/airports/KBUR/flights"
},
{
  "airport_code": "KDEN",
  "alternate_ident": "DEN",
  "name": "Denver Intl",
  "elevation": 5433,
  "city": "Denver",
  "state": "CO",
  "longitude": -104.6731667,
  "latitude": 39.8616667,
  "timezone": "America/Denver",
  "country_code": "US",
  "wiki_url": "http://en.wikipedia.org/wiki/Denver_International",
  "airport_flights_url": "/airports/KDEN/flights"
},
{
  "airport_code": "KTUS",
  "alternate_ident": "TUS",
  "name": "Tucson Intl",
  "elevation": 2643,
  "city": "Tucson",
  "state": "AZ",
  "longitude": -110.9410139,
  "latitude": 32.1160692,
  "timezone": "America/Phoenix",
  "country_code": "US",
  "wiki_url": "http://en.wikipedia.org/wiki/Tucson_International_Airport",
  "airport_flights_url": "/airports/KTUS/flights"
},
{
  "airport_code": "RJAA",
  "alternate_ident": "NRT",
  "name": "Narita Int'l",
  "elevation": 141,
  "city": "Tokyo (Narita)",
  "state": "",
  "longitude": 140.386389,
  "latitude": 35.764722,
  "timezone": "Asia/Tokyo",
  "country_code": "JP",
  "wiki_url": "https://en.wikipedia.org/wiki/Narita_International_Airport",
  "airport_flights_url": "/airports/RJAA/flights"
},
{
  "airport_code": "RJTT",
  "alternate_ident": "HND",
  "name": "Tokyo Int'l (Haneda)",
  "elevation": 35,
  "city": "Ota",
  "state": "Tokyo",
  "longitude": 139.779694,
  "latitude": 35.552258,
  "timezone": "Asia/Tokyo",
  "country_code": "JP",
  "wiki_url": "https://en.wikipedia.org/wiki/Haneda_Airport",
  "airport_flights_url": "/airports/RJTT/flights"
},
{
  "airport_code": "KBOI",
  "alternate_ident": "BOI",
  "name": "Gowen Field",
  "elevation": 2871,
  "city": "Boise",
  "state": "ID",
  "longitude": -116.2228611,
  "latitude": 43.5643611,
  "timezone": "America/Denver",
  "country_code": "US",
  "wiki_url": "http://en.wikipedia.org/wiki/Gowen_Field_Air_National_Guard_Base",
  "airport_flights_url": "/airports/KBOI/flights"
},
{
  "airport_code": "KABQ",
  "alternate_ident": "ABQ",
  "name": "Albuquerque Intl Sunport",
  "elevation": 5354,
  "city": "Albuquerque",
  "state": "NM",
  "longitude": -106.6082622,
  "latitude": 35.0389316,
  "timezone": "America/Denver",
  "country_code": "US",
  "wiki_url": "http://en.wikipedia.org/wiki/Albuquerque_International_Sunport",
  "airport_flights_url": "/airports/KABQ/flights"
},
{
  "airport_code": "KTPA",
  "alternate_ident": "TPA",
  "name": "Tampa Intl",
  "elevation": 26,
  "city": "Tampa",
  "state": "FL",
  "longitude": -82.53325,
  "latitude": 27.9754722,
  "timezone": "America/New_York",
  "country_code": "US",
  "wiki_url": "http://en.wikipedia.org/wiki/Tampa_International_Airport",
  "airport_flights_url": "/airports/KTPA/flights"
},
{
  "airport_code": "KMCO",
  "alternate_ident": "MCO",
  "name": "Orlando Intl",
  "elevation": 96,
  "city": "Orlando",
  "state": "FL",
  "longitude": -81.309,
  "latitude": 28.4293889,
  "timezone": "America/New_York",
  "country_code": "US",
  "wiki_url": "http://en.wikipedia.org/wiki/Orlando_International_Airport",
  "airport_flights_url": "/airports/KMCO/flights"
},
{
  "airport_code": "PHNL",
  "alternate_ident": "HNL",
  "name": "Daniel K Inouye Intl",
  "elevation": 12,
  "city": "Honolulu",
  "state": "HI",
  "longitude": -157.9202275,
  "latitude": 21.3178172,
  "timezone": "Pacific/Honolulu",
  "country_code": "US",
  "wiki_url": "http://en.wikipedia.org/wiki/Honolulu_International_Airport",
  "airport_flights_url": "/airports/PHNL/flights"
},
{
  "airport_code": "KBZN",
  "alternate_ident": "BZN",
  "name": "Bozeman Yellowstone Intl",
  "elevation": 4473,
  "city": "Bozeman",
  "state": "MT",
  "longitude": -111.1502603,
  "latitude": 45.7772358,
  "timezone": "America/Denver",
  "country_code": "US",
  "wiki_url": "http://en.wikipedia.org/wiki/Bozeman_Yellowstone_International_Airport",
  "airport_flights_url": "/airports/KBZN/flights"
},
{
  "airport_code": "PHKO",
  "alternate_ident": "KOA",
  "name": "Ellison Onizuka Kona Intl At Keahole",
  "elevation": 47,
  "city": "Kailua/Kona",
  "state": "HI",
  "longitude": -156.0456314,
  "latitude": 19.7387658,
  "timezone": "Pacific/Honolulu",
  "country_code": "US",
  "wiki_url": "http://en.wikipedia.org/wiki/Kona_International_Airport",
  "airport_flights_url": "/airports/PHKO/flights"
},
{
  "airport_code": "VIDP",
  "alternate_ident": "DEL",
  "name": "Indira Gandhi Int'l",
  "elevation": 777,
  "city": "New Delhi",
  "state": "",
  "longitude": 77.103088,
  "latitude": 28.5665,
  "timezone": "Asia/Kolkata",
  "country_code": "IN",
  "wiki_url": "https://en.wikipedia.org/wiki/Indira_Gandhi_International_Airport",
  "airport_flights_url": "/airports/VIDP/flights"
},
{
  "airport_code": "CYVR",
  "alternate_ident": "YVR",
  "name": "Vancouver Int'l",
  "elevation": 14,
  "city": "Vancouver",
  "state": "British Columbia",
  "longitude": -123.184444,
  "latitude": 49.193889,
  "timezone": "America/Vancouver",
  "country_code": "CA",
  "wiki_url": "https://en.wikipedia.org/wiki/Vancouver_International_Airport",
  "airport_flights_url": "/airports/CYVR/flights"
},
{
  "airport_code": "RKSI",
  "alternate_ident": "ICN",
  "name": "Incheon Int'l",
  "elevation": 23,
  "city": "Seoul (Incheon)",
  "state": "",
  "longitude": 126.44,
  "latitude": 37.463333,
  "timezone": "Asia/Seoul",
  "country_code": "KR",
  "wiki_url": "https://en.wikipedia.org/wiki/Incheon_International_Airport",
  "airport_flights_url": "/airports/RKSI/flights"
},
{
  "airport_code": "KSBA",
  "alternate_ident": "SBA",
  "name": "Santa Barbara Muni",
  "elevation": 13,
  "city": "Santa Barbara",
  "state": "CA",
  "longitude": -119.8414927,
  "latitude": 34.4261914,
  "timezone": "America/Los_Angeles",
  "country_code": "US",
  "wiki_url": "http://en.wikipedia.org/wiki/Santa_Barbara_Municipal_Airport",
  "airport_flights_url": "/airports/KSBA/flights"
},
{
  "airport_code": "KBWI",
  "alternate_ident": "BWI",
  "name": "Baltimore/Washington Intl",
  "elevation": 143,
  "city": "Baltimore",
  "state": "MD",
  "longitude": -76.6689911,
  "latitude": 39.1757283,
  "timezone": "America/New_York",
  "country_code": "US",
  "wiki_url": "http://en.wikipedia.org/wiki/Baltimore/Washington_International_Airport",
  "airport_flights_url": "/airports/KBWI/flights"
},
{
  "airport_code": "KCID",
  "alternate_ident": "CID",
  "name": "The Eastern Iowa",
  "elevation": 869,
  "city": "Cedar Rapids",
  "state": "IA",
  "longitude": -91.7107986,
  "latitude": 41.8846886,
  "timezone": "America/Chicago",
  "country_code": "US",
  "wiki_url": "http://en.wikipedia.org/wiki/The_Eastern_Iowa_Airport",
  "airport_flights_url": "/airports/KCID/flights"
},
{
  "airport_code": "KDAY",
  "alternate_ident": "DAY",
  "name": "James M Cox Dayton Intl",
  "elevation": 1009,
  "city": "Dayton",
  "state": "OH",
  "longitude": -84.2194122,
  "latitude": 39.9022522,
  "timezone": "America/New_York",
  "country_code": "US",
  "wiki_url": "http://en.wikipedia.org/wiki/Dayton_International_Airport",
  "airport_flights_url": "/airports/KDAY/flights"
},
{
  "airport_code": "KDFW",
  "alternate_ident": "DFW",
  "name": "Dallas-Fort Worth Intl",
  "elevation": 606,
  "city": "Dallas-Fort Worth",
  "state": "TX",
  "longitude": -97.0376947,
  "latitude": 32.8972331,
  "timezone": "America/Chicago",
  "country_code": "US",
  "wiki_url": "http://en.wikipedia.org/wiki/Dallas/Fort_Worth_International_Airport",
  "airport_flights_url": "/airports/KDFW/flights"
},
{
  "airport_code": "KFSD",
  "alternate_ident": "FSD",
  "name": "Joe Foss Fld",
  "elevation": 1429,
  "city": "Sioux Falls",
  "state": "SD",
  "longitude": -96.7419164,
  "latitude": 43.5820133,
  "timezone": "America/Chicago",
  "country_code": "US",
  "wiki_url": "http://en.wikipedia.org/wiki/Joe_Foss_Field",
  "airport_flights_url": "/airports/KFSD/flights"
},
{
  "airport_code": "KIND",
  "alternate_ident": "IND",
  "name": "Indianapolis Intl",
  "elevation": 796,
  "city": "Indianapolis",
  "state": "IN",
  "longitude": -86.2946389,
  "latitude": 39.7173056,
  "timezone": "America/Indiana/Indianapolis",
  "country_code": "US",
  "wiki_url": "http://en.wikipedia.org/wiki/Indianapolis_International_Airport",
  "airport_flights_url": "/airports/KIND/flights"
},
{
  "airport_code": "KLGA",
  "alternate_ident": "LGA",
  "name": "LaGuardia",
  "elevation": 20,
  "city": "New York",
  "state": "NY",
  "longitude": -73.8726111,
  "latitude": 40.77725,
  "timezone": "America/New_York",
  "country_code": "US",
  "wiki_url": "http://en.wikipedia.org/wiki/LaGuardia_Airport",
  "airport_flights_url": "/airports/KLGA/flights"
},
{
  "airport_code": "KMCI",
  "alternate_ident": "MCI",
  "name": "Kansas City Intl",
  "elevation": 1026,
  "city": "Kansas City",
  "state": "MO",
  "longitude": -94.7138889,
  "latitude": 39.2976111,
  "timezone": "America/Chicago",
  "country_code": "US",
  "wiki_url": "http://en.wikipedia.org/wiki/Kansas_City_International_Airport",
  "airport_flights_url": "/airports/KMCI/flights"
},
{
  "airport_code": "KMEM",
  "alternate_ident": "MEM",
  "name": "Memphis Intl",
  "elevation": 340,
  "city": "Memphis",
  "state": "TN",
  "longitude": -89.9766792,
  "latitude": 35.0424114,
  "timezone": "America/Chicago",
  "country_code": "US",
  "wiki_url": "http://en.wikipedia.org/wiki/Memphis_International_Airport",
  "airport_flights_url": "/airports/KMEM/flights"
},
{
  "airport_code": "KOMA",
  "alternate_ident": "OMA",
  "name": "Eppley Airfield",
  "elevation": 984,
  "city": "Omaha",
  "state": "NE",
  "longitude": -95.8940556,
  "latitude": 41.3031667,
  "timezone": "America/Chicago",
  "country_code": "US",
  "wiki_url": "http://en.wikipedia.org/wiki/Eppley_Airfield",
  "airport_flights_url": "/airports/KOMA/flights"
},
{
  "airport_code": "KSDF",
  "alternate_ident": "SDF",
  "name": "Muhammad Ali Intl",
  "elevation": 500,
  "city": "Louisville",
  "state": "KY",
  "longitude": -85.7364989,
  "latitude": 38.1740858,
  "timezone": "America/New_York",
  "country_code": "US",
  "wiki_url": "http://en.wikipedia.org/wiki/Louisville_International_Airport",
  "airport_flights_url": "/airports/KSDF/flights"
},
{
  "airport_code": "KSMF",
  "alternate_ident": "SMF",
  "name": "Sacramento Intl",
  "elevation": 26,
  "city": "Sacramento",
  "state": "CA",
  "longitude": -121.5907778,
  "latitude": 38.6954444,
  "timezone": "America/Los_Angeles",
  "country_code": "US",
  "wiki_url": "http://en.wikipedia.org/wiki/Sacramento_International_Airport",
  "airport_flights_url": "/airports/KSMF/flights"
},
{
  "airport_code": "MMSD",
  "alternate_ident": "SJD",
  "name": "Los Cabos Int'l",
  "elevation": 374,
  "city": "Los Cabos",
  "state": "Baja California Sur",
  "longitude": -109.721044,
  "latitude": 23.15185,
  "timezone": "America/Mazatlan",
  "country_code": "MX",
  "wiki_url": "https://en.wikipedia.org/wiki/Los_Cabos_International_Airport",
  "airport_flights_url": "/airports/MMSD/flights"
},
{
  "airport_code": "CYUL",
  "alternate_ident": "YUL",
  "name": "Montreal-Trudeau",
  "elevation": 118,
  "city": "Montreal",
  "state": "Quebec",
  "longitude": -73.741389,
  "latitude": 45.468056,
  "timezone": "America/Toronto",
  "country_code": "CA",
  "wiki_url": "https://en.wikipedia.org/wiki/Montréal–Pierre_Elliott_Trudeau_International_Airport",
  "airport_flights_url": "/airports/CYUL/flights"
},
{
  "airport_code": "KAUS",
  "alternate_ident": "AUS",
  "name": "Austin-Bergstrom Intl",
  "elevation": 541,
  "city": "Austin",
  "state": "TX",
  "longitude": -97.6698761,
  "latitude": 30.1945272,
  "timezone": "America/Chicago",
  "country_code": "US",
  "wiki_url": "http://en.wikipedia.org/wiki/Austin-Bergstrom_International_Airport",
  "airport_flights_url": "/airports/KAUS/flights"
},
{
  "airport_code": "KBNA",
  "alternate_ident": "BNA",
  "name": "Nashville Intl",
  "elevation": 599,
  "city": "Nashville",
  "state": "TN",
  "longitude": -86.6781806,
  "latitude": 36.124475,
  "timezone": "America/Chicago",
  "country_code": "US",
  "wiki_url": "http://en.wikipedia.org/wiki/Nashville_International",
  "airport_flights_url": "/airports/KBNA/flights"
},
{
  "airport_code": "KSAT",
  "alternate_ident": "SAT",
  "name": "San Antonio Intl",
  "elevation": 809,
  "city": "San Antonio",
  "state": "TX",
  "longitude": -98.4690569,
  "latitude": 29.5339583,
  "timezone": "America/Chicago",
  "country_code": "US",
  "wiki_url": "http://en.wikipedia.org/wiki/San_Antonio_International_Airport",
  "airport_flights_url": "/airports/KSAT/flights"
},
{
  "airport_code": "MMUN",
  "alternate_ident": "CUN",
  "name": "Cancun Int'l",
  "elevation": 20,
  "city": "Cancun",
  "state": "Quintana Roo",
  "longitude": -86.877083,
  "latitude": 21.036528,
  "timezone": "America/Cancun",
  "country_code": "MX",
  "wiki_url": "https://en.wikipedia.org/wiki/Cancún_International_Airport",
  "airport_flights_url": "/airports/MMUN/flights"
},
{
  "airport_code": "MYNN",
  "alternate_ident": "NAS",
  "name": "Lynden Pindling Int'l (Nassau)",
  "elevation": 16,
  "city": "Nassau",
  "state": "New Providence",
  "longitude": -77.466231,
  "latitude": 25.038958,
  "timezone": "America/Nassau",
  "country_code": "BS",
  "wiki_url": "https://en.wikipedia.org/wiki/Lynden_Pindling_International_Airport",
  "airport_flights_url": "/airports/MYNN/flights"
},
{
  "airport_code": "ZSPD",
  "alternate_ident": "PVG",
  "name": "Shanghai Pudong Int'l",
  "elevation": 11,
  "city": "Shanghai",
  "state": "",
  "longitude": 121.792367,
  "latitude": 31.142797,
  "timezone": "Asia/Shanghai",
  "country_code": "CN",
  "wiki_url": "https://en.wikipedia.org/wiki/Shanghai_Pudong_International_Airport",
  "airport_flights_url": "/airports/ZSPD/flights"
},
{
  "airport_code": "KMLI",
  "alternate_ident": "MLI",
  "name": "Quad Cities Intl",
  "elevation": 589,
  "city": "Moline",
  "state": "IL",
  "longitude": -90.5075278,
  "latitude": 41.4482778,
  "timezone": "America/Chicago",
  "country_code": "US",
  "wiki_url": "http://en.wikipedia.org/wiki/Quad_City_International_Airport",
  "airport_flights_url": "/airports/KMLI/flights"
},
{
  "airport_code": "KDCA",
  "alternate_ident": "DCA",
  "name": "Reagan National",
  "elevation": 14,
  "city": "Washington",
  "state": "DC",
  "longitude": -77.0377222,
  "latitude": 38.8514444,
  "timezone": "America/New_York",
  "country_code": "US",
  "wiki_url": "http://en.wikipedia.org/wiki/Reagan_National",
  "airport_flights_url": "/airports/KDCA/flights"
},
{
  "airport_code": "PANC",
  "alternate_ident": "ANC",
  "name": "Anchorage Intl",
  "elevation": 151,
  "city": "Anchorage",
  "state": "AK",
  "longitude": -149.9981375,
  "latitude": 61.1740847,
  "timezone": "America/Anchorage",
  "country_code": "US",
  "wiki_url": "http://en.wikipedia.org/wiki/Anchorage_International_Airport",
  "airport_flights_url": "/airports/PANC/flights"
},
{
  "airport_code": "KATW",
  "alternate_ident": "ATW",
  "name": "Appleton Intl",
  "elevation": 918,
  "city": "Appleton",
  "state": "WI",
  "longitude": -88.5190722,
  "latitude": 44.2580931,
  "timezone": "America/Chicago",
  "country_code": "US",
  "wiki_url": "http://en.wikipedia.org/wiki/Outagamie_County_Regional_Airport",
  "airport_flights_url": "/airports/KATW/flights"
},
{
  "airport_code": "KALB",
  "alternate_ident": "ALB",
  "name": "Albany Intl",
  "elevation": 284,
  "city": "Albany",
  "state": "NY",
  "longitude": -73.80198,
  "latitude": 42.7491161,
  "timezone": "America/New_York",
  "country_code": "US",
  "wiki_url": "http://en.wikipedia.org/wiki/Albany_International_Airport",
  "airport_flights_url": "/airports/KALB/flights"
},
{
  "airport_code": "LEMD",
  "alternate_ident": "MAD",
  "name": "Adolfo Suárez Madrid-Barajas",
  "elevation": 2000,
  "city": "Madrid",
  "state": "",
  "longitude": -3.566764,
  "latitude": 40.493556,
  "timezone": "Europe/Madrid",
  "country_code": "ES",
  "wiki_url": "https://en.wikipedia.org/wiki/Madrid–Barajas_Airport",
  "airport_flights_url": "/airports/LEMD/flights"
},
{
  "airport_code": "KDAL",
  "alternate_ident": "DAL",
  "name": "Dallas Love Fld",
  "elevation": 486,
  "city": "Dallas",
  "state": "TX",
  "longitude": -96.8508767,
  "latitude": 32.8459447,
  "timezone": "America/Chicago",
  "country_code": "US",
  "wiki_url": "http://en.wikipedia.org/wiki/Dallas_Love_Field",
  "airport_flights_url": "/airports/KDAL/flights"
},
{
  "airport_code": "KLIT",
  "alternate_ident": "LIT",
  "name": "Clinton National",
  "elevation": 266,
  "city": "Little Rock",
  "state": "AR",
  "longitude": -92.2247769,
  "latitude": 34.7294406,
  "timezone": "America/Chicago",
  "country_code": "US",
  "wiki_url": "http://en.wikipedia.org/wiki/Clinton_National_Airport",
  "airport_flights_url": "/airports/KLIT/flights"
},
{
  "airport_code": "KMKE",
  "alternate_ident": "MKE",
  "name": "Milwaukee Mitchell Intl Airport",
  "elevation": 728,
  "city": "Milwaukee",
  "state": "WI",
  "longitude": -87.8970644,
  "latitude": 42.9469319,
  "timezone": "America/Chicago",
  "country_code": "US",
  "wiki_url": "http://en.wikipedia.org/wiki/General_Mitchell_International_Airport",
  "airport_flights_url": "/airports/KMKE/flights"
},
{
  "airport_code": "KROC",
  "alternate_ident": "ROC",
  "name": "Frederick Douglass/Greater Rochester Intl",
  "elevation": 558,
  "city": "Rochester",
  "state": "NY",
  "longitude": -77.6718689,
  "latitude": 43.1191436,
  "timezone": "America/New_York",
  "country_code": "US",
  "wiki_url": "http://en.wikipedia.org/wiki/Greater_Rochester_International_Airport",
  "airport_flights_url": "/airports/KROC/flights"
},
{
  "airport_code": "KSGF",
  "alternate_ident": "SGF",
  "name": "Springfield",
  "elevation": 1268,
  "city": "Springfield",
  "state": "MO",
  "longitude": -93.3886389,
  "latitude": 37.2456667,
  "timezone": "America/Chicago",
  "country_code": "US",
  "wiki_url": "http://en.wikipedia.org/wiki/Abraham_Lincoln_Capital_Airport",
  "airport_flights_url": "/airports/KSGF/flights"
},

{
  "airport_code": "KXNA",
  "alternate_ident": "XNA",
  "name": "Northwest Arkansas Ntl",
  "elevation": 1288,
  "city": "Fayetteville/Springdale/Rogers",
  "state": "AR",
  "longitude": -94.3077656,
  "latitude": 36.2815792,
  "timezone": "America/Chicago",
  "country_code": "US",
  "wiki_url": "http://en.wikipedia.org/wiki/Northwest_Arkansas_Regional_Airport",
  "airport_flights_url": "/airports/KXNA/flights"
},
{
    "airport_code": "OMDB",
    "alternate_ident": "DXB",
    "code_icao": "OMDB",
    "code_iata": "DXB",
    "code_lid": null,
    "name": "Dubai Int'l",
    "type": "Airport",
    "elevation": 34,
    "city": "Dubai",
    "state": "",
    "longitude": 55.364278,
    "latitude": 25.254997,
    "timezone": "Asia/Dubai",
    "country_code": "AE",
    "wiki_url": "https://en.wikipedia.org/wiki/Dubai_International_Airport",
    "airport_flights_url": "/airports/OMDB/flights",
    "alternatives": []
  },
{
  "airport_code": "KECP",
  "alternate_ident": "ECP",
  "code_icao": "KECP",
  "code_iata": "ECP",
  "code_lid": "ECP",
  "name": "Northwest Florida Beaches Intl",
  "type": "Airport",
  "elevation": 68,
  "city": "Panama City",
  "state": "FL",
  "longitude": -85.7956022,
  "latitude": 30.3582408,
  "timezone": "America/Chicago",
  "country_code": "US",
  "wiki_url": "http://en.wikipedia.org/wiki/Northwest_Florida_Beaches_International_Airport",
  "airport_flights_url": "/airports/KECP/flights",
  "alternatives": []
},
{
  "airport_code": "KCMH",
  "alternate_ident": "CMH",
  "code_icao": "KCMH",
  "code_iata": "CMH",
  "code_lid": "CMH",
  "name": "John Glenn Columbus Intl Airport",
  "type": "Airport",
  "elevation": 815,
  "city": "Columbus",
  "state": "OH",
  "longitude": -82.8921592,
  "latitude": 39.9969467,
  "timezone": "America/New_York",
  "country_code": "US",
  "wiki_url": "http://en.wikipedia.org/wiki/Port_Columbus_International",
  "airport_flights_url": "/airports/KCMH/flights",
  "alternatives": []
},
{
  "airport_code": "KFLL",
  "alternate_ident": "FLL",
  "code_icao": "KFLL",
  "code_iata": "FLL",
  "code_lid": "FLL",
  "name": "Fort Lauderdale Intl",
  "type": "Airport",
  "elevation": 65,
  "city": "Fort Lauderdale",
  "state": "FL",
  "longitude": -80.1496944,
  "latitude": 26.0716667,
  "timezone": "America/New_York",
  "country_code": "US",
  "wiki_url": "http://en.wikipedia.org/wiki/Hollywood_International_Airport",
  "airport_flights_url": "/airports/KFLL/flights",
  "alternatives": []
},
{
  "airport_code": "KGSP",
  "alternate_ident": "GSP",
  "code_icao": "KGSP",
  "code_iata": "GSP",
  "code_lid": "GSP",
  "name": "Greenville/Spartanburg Intl",
  "type": "Airport",
  "elevation": 963,
  "city": "Greer",
  "state": "SC",
  "longitude": -82.2188594,
  "latitude": 34.8956711,
  "timezone": "America/New_York",
  "country_code": "US",
  "wiki_url": "http://en.wikipedia.org/wiki/Greenville-Spartanburg_International_Airport",
  "airport_flights_url": "/airports/KGSP/flights",
  "alternatives": []
},
{
  "airport_code": "KMIA",
  "alternate_ident": "MIA",
  "code_icao": "KMIA",
  "code_iata": "MIA",
  "code_lid": "MIA",
  "name": "Miami Intl",
  "type": "Airport",
  "elevation": 9,
  "city": "Miami",
  "state": "FL",
  "longitude": -80.2901158,
  "latitude": 25.7953611,
  "timezone": "America/New_York",
  "country_code": "US",
  "wiki_url": "http://en.wikipedia.org/wiki/Miami_International",
  "airport_flights_url": "/airports/KMIA/flights",
  "alternatives": []
},
{
  "airport_code": "KEWR",
  "alternate_ident": "EWR",
  "code_icao": "KEWR",
  "code_iata": "EWR",
  "code_lid": "EWR",
  "name": "Newark Liberty Intl",
  "type": "Airport",
  "elevation": 17,
  "city": "Newark",
  "state": "NJ",
  "longitude": -74.1686868,
  "latitude": 40.6924798,
  "timezone": "America/New_York",
  "country_code": "US",
  "wiki_url": "http://en.wikipedia.org/wiki/Newark_Liberty_International",
  "airport_flights_url": "/airports/KEWR/flights",
  "alternatives": []
},
{
  "airport_code": "KCRP",
  "alternate_ident": "CRP",
  "code_icao": "KCRP",
  "code_iata": "CRP",
  "code_lid": "CRP",
  "name": "Corpus Christi Intl",
  "type": "Airport",
  "elevation": 46,
  "city": "Corpus Christi",
  "state": "TX",
  "longitude": -97.5024167,
  "latitude": 27.7721944,
  "timezone": "America/Chicago",
  "country_code": "US",
  "wiki_url": "http://en.wikipedia.org/wiki/Corpus_Christi_International_Airport",
  "airport_flights_url": "/airports/KCRP/flights",
  "alternatives": []
},
{
  "airport_code": "KSNA",
  "alternate_ident": "SNA",
  "code_icao": "KSNA",
  "code_iata": "SNA",
  "code_lid": "SNA",
  "name": "John Wayne",
  "type": "Airport",
  "elevation": 55,
  "city": "Santa Ana",
  "state": "CA",
  "longitude": -117.8682331,
  "latitude": 33.6756619,
  "timezone": "America/Los_Angeles",
  "country_code": "US",
  "wiki_url": "http://en.wikipedia.org/wiki/John_Wayne_Airport",
  "airport_flights_url": "/airports/KSNA/flights",
  "alternatives": []
},
{
  "airport_code": "KIAD",
  "alternate_ident": "IAD",
  "code_icao": "KIAD",
  "code_iata": "IAD",
  "code_lid": "IAD",
  "name": "Washington Dulles Intl",
  "type": "Airport",
  "elevation": 313,
  "city": "Washington",
  "state": "DC",
  "longitude": -77.4599444,
  "latitude": 38.9474444,
  "timezone": "America/New_York",
  "country_code": "US",
  "wiki_url": "http://en.wikipedia.org/wiki/Washington_Dulles_International_Airport",
  "airport_flights_url": "/airports/KIAD/flights",
  "alternatives": []
},
{
  "airport_code": "KRDU",
  "alternate_ident": "RDU",
  "code_icao": "KRDU",
  "code_iata": "RDU",
  "code_lid": "RDU",
  "name": "Raleigh-Durham Intl",
  "type": "Airport",
  "elevation": 435,
  "city": "Raleigh/Durham",
  "state": "NC",
  "longitude": -78.7874722,
  "latitude": 35.8776389,
  "timezone": "America/New_York",
  "country_code": "US",
  "wiki_url": "http://en.wikipedia.org/wiki/Raleigh-Durham_International_Airport",
  "airport_flights_url": "/airports/KRDU/flights",
  "alternatives": []
},
{
  "airport_code": "SEQM",
  "alternate_ident": "UIO",
  "code_icao": "SEQM",
  "code_iata": "UIO",
  "code_lid": null,
  "name": "Mariscal Sucre Int'l",
  "type": "Airport",
  "elevation": 9228,
  "city": "Quito",
  "state": "",
  "longitude": -78.3544444,
  "latitude": -0.1241667,
  "timezone": "America/Guayaquil",
  "country_code": "EC",
  "wiki_url": "https://en.wikipedia.org/wiki/Mariscal_Sucre_International_Airport",
  "airport_flights_url": "/airports/SEQM/flights",
  "alternatives": []
},
{
  "airport_code": "KONT",
  "alternate_ident": "ONT",
  "code_icao": "KONT",
  "code_iata": "ONT",
  "code_lid": "ONT",
  "name": "Ontario Intl",
  "type": "Airport",
  "elevation": 944,
  "city": "Ontario",
  "state": "CA",
  "longitude": -117.6011875,
  "latitude": 34.0560142,
  "timezone": "America/Los_Angeles",
  "country_code": "US",
  "wiki_url": "http://en.wikipedia.org/wiki/Ontario_International_Airport",
  "airport_flights_url": "/airports/KONT/flights",
  "alternatives": []
},
{
  "airport_code": "EKCH",
  "alternate_ident": "CPH",
  "code_icao": "EKCH",
  "code_iata": "CPH",
  "code_lid": null,
  "name": "Copenhagen",
  "type": "Airport",
  "elevation": 17,
  "city": "Copenhagen",
  "state": "",
  "longitude": 12.655972,
  "latitude": 55.617917,
  "timezone": "Europe/Copenhagen",
  "country_code": "DK",
  "wiki_url": "https://en.wikipedia.org/wiki/Copenhagen_Airport",
  "airport_flights_url": "/airports/EKCH/flights",
  "alternatives": []
},
{
  "airport_code": "EIDW",
  "alternate_ident": "DUB",
  "code_icao": "EIDW",
  "code_iata": "DUB",
  "code_lid": null,
  "name": "Dublin Int'l",
  "type": "Airport",
  "elevation": 242,
  "city": "Dublin",
  "state": "",
  "longitude": -6.270075,
  "latitude": 53.421333,
  "timezone": "Europe/Dublin",
  "country_code": "IE",
  "wiki_url": "https://en.wikipedia.org/wiki/Dublin_Airport",
  "airport_flights_url": "/airports/EIDW/flights",
  "alternatives": []
},
{
  "airport_code": "KPVU",
  "alternate_ident": "PVU",
  "code_icao": "KPVU",
  "code_iata": "PVU",
  "code_lid": "PVU",
  "name": "Provo Muni",
  "type": "Airport",
  "elevation": 4496,
  "city": "Provo",
  "state": "UT",
  "longitude": -111.72161,
  "latitude": 40.21785,
  "timezone": "America/Denver",
  "country_code": "US",
  "wiki_url": "http://en.wikipedia.org/wiki/Provo_Municipal_Airport",
  "airport_flights_url": "/airports/KPVU/flights",
  "alternatives": []
},{
    "airport_code": "MSLP",
    "alternate_ident": "SAL",
    "code_icao": "MSLP",
    "code_iata": "SAL",
    "code_lid": null,
    "name": "El Salvador Int'l",
    "type": "Airport",
    "elevation": 101,
    "city": "San Salvador",
    "state": "",
    "longitude": -89.055728,
    "latitude": 13.440947,
    "timezone": "America/El_Salvador",
    "country_code": "SV",
    "wiki_url": "https://en.wikipedia.org/wiki/Cuscatlan_International_Airport",
    "airport_flights_url": "/airports/MSLP/flights",
    "alternatives": []
  },
{
  "airport_code": "RCTP",
  "alternate_ident": "TPE",
  "code_icao": "RCTP",
  "code_iata": "TPE",
  "code_lid": null,
  "name": "Taiwan Taoyuan Int'l",
  "type": "Airport",
  "elevation": 107,
  "city": "Taipei",
  "state": "",
  "longitude": 121.232822,
  "latitude": 25.077731,
  "timezone": "Asia/Taipei",
  "country_code": "TW",
  "wiki_url": "https://en.wikipedia.org/wiki/Taiwan_Taoyuan_International_Airport",
  "airport_flights_url": "/airports/RCTP/flights",
  "alternatives": []
},
{
  "airport_code": "EDDF",
  "alternate_ident": "FRA",
  "code_icao": "EDDF",
  "code_iata": "FRA",
  "code_lid": null,
  "name": "Frankfurt Int'l",
  "type": "Airport",
  "elevation": 364,
  "city": "Frankfurt am Main",
  "state": "",
  "longitude": 8.543125,
  "latitude": 50.026421,
  "timezone": "Europe/Berlin",
  "country_code": "DE",
  "wiki_url": "https://en.wikipedia.org/wiki/Frankfurt_Airport",
  "airport_flights_url": "/airports/EDDF/flights",
  "alternatives": []
},
{
  "airport_code": "KRDM",
  "alternate_ident": "RDM",
  "code_icao": "KRDM",
  "code_iata": "RDM",
  "code_lid": "RDM",
  "name": "Roberts Fld",
  "type": "Airport",
  "elevation": 3081,
  "city": "Redmond",
  "state": "OR",
  "longitude": -121.1499714,
  "latitude": 44.2540689,
  "timezone": "America/Los_Angeles",
  "country_code": "US",
  "wiki_url": "http://en.wikipedia.org/wiki/Roberts_Field",
  "airport_flights_url": "/airports/KRDM/flights",
  "alternatives": []
},
{
  "airport_code": "KACV",
  "alternate_ident": "ACV",
  "code_icao": "KACV",
  "code_iata": "ACV",
  "code_lid": "ACV",
  "name": "California Redwood Coast-Humboldt County",
  "type": "Airport",
  "elevation": 222,
  "city": "Arcata/Eureka",
  "state": "CA",
  "longitude": -124.1084722,
  "latitude": 40.9778333,
  "timezone": "America/Los_Angeles",
  "country_code": "US",
  "wiki_url": "http://en.wikipedia.org/wiki/Arcata_Airport",
  "airport_flights_url": "/airports/KACV/flights",
  "alternatives": []
},
{
  "airport_code": "KMFR",
  "alternate_ident": "MFR",
  "code_icao": "KMFR",
  "code_iata": "MFR",
  "code_lid": "MFR",
  "name": "Rogue Valley Intl",
  "type": "Airport",
  "elevation": 1335,
  "city": "Medford",
  "state": "OR",
  "longitude": -122.8732875,
  "latitude": 42.3749647,
  "timezone": "America/Los_Angeles",
  "country_code": "US",
  "wiki_url": "http://en.wikipedia.org/wiki/Rogue_Valley_International-Medford_Airport",
  "airport_flights_url": "/airports/KMFR/flights",
  "alternatives": []
},
{
  "airport_code": "KTEB",
  "alternate_ident": "TEB",
  "code_icao": "KTEB",
  "code_iata": "TEB",
  "code_lid": "TEB",
  "name": "Teterboro",
  "type": "Airport",
  "elevation": 8,
  "city": "Teterboro",
  "state": "NJ",
  "longitude": -74.0608333,
  "latitude": 40.8501111,
  "timezone": "America/New_York",
  "country_code": "US",
  "wiki_url": "http://en.wikipedia.org/wiki/Teterboro_Airport",
  "airport_flights_url": "/airports/KTEB/flights",
  "alternatives": []
},
{
  "airport_code": "EHAM",
  "alternate_ident": "AMS",
  "code_icao": "EHAM",
  "code_iata": "AMS",
  "code_lid": null,
  "name": "Amsterdam Schiphol",
  "type": "Airport",
  "elevation": -11,
  "city": "Amsterdam",
  "state": "",
  "longitude": 4.763889,
  "latitude": 52.308613,
  "timezone": "Europe/Amsterdam",
  "country_code": "NL",
  "wiki_url": "https://en.wikipedia.org/wiki/Amsterdam_Airport_Schiphol",
  "airport_flights_url": "/airports/EHAM/flights",
  "alternatives": []
},
{
  "airport_code": "KEUG",
  "alternate_ident": "EUG",
  "code_icao": "KEUG",
  "code_iata": "EUG",
  "code_lid": "EUG",
  "name": "Mahlon Sweet Fld",
  "type": "Airport",
  "elevation": 373,
  "city": "Eugene",
  "state": "OR",
  "longitude": -123.2119722,
  "latitude": 44.1245833,
  "timezone": "America/Los_Angeles",
  "country_code": "US",
  "wiki_url": "http://en.wikipedia.org/wiki/Mahlon_Sweet_Field",
  "airport_flights_url": "/airports/KEUG/flights",
  "alternatives": []
},
{
  "airport_code": "KMSP",
  "alternate_ident": "MSP",
  "code_icao": "KMSP",
  "code_iata": "MSP",
  "code_lid": "MSP",
  "name": "Minneapolis/St Paul Intl",
  "type": "Airport",
  "elevation": 841,
  "city": "Minneapolis",
  "state": "MN",
  "longitude": -93.2217778,
  "latitude": 44.8819722,
  "timezone": "America/Chicago",
  "country_code": "US",
  "wiki_url": "http://en.wikipedia.org/wiki/Minneapolis/St_Paul_International_Airport",
  "airport_flights_url": "/airports/KMSP/flights",
  "alternatives": []
},
{
  "airport_code": "MMTO",
  "alternate_ident": "TLC",
  "code_icao": "MMTO",
  "code_iata": "TLC",
  "code_lid": null,
  "name": "Lic. Adolfo Lopez Mateos Int'l",
  "type": "Airport",
  "elevation": 8466,
  "city": "Toluca",
  "state": "Estado de Mexico",
  "longitude": -99.566008,
  "latitude": 19.337072,
  "timezone": "America/Mexico_City",
  "country_code": "MX",
  "wiki_url": "https://en.wikipedia.org/wiki/Lic._Adolfo_López_Mateos_International_Airport",
  "airport_flights_url": "/airports/MMTO/flights",
  "alternatives": []
},
{
  "airport_code": "KMRY",
  "alternate_ident": "MRY",
  "code_icao": "KMRY",
  "code_iata": "MRY",
  "code_lid": "MRY",
  "name": "Monterey Rgnl",
  "type": "Airport",
  "elevation": 256,
  "city": "Monterey",
  "state": "CA",
  "longitude": -121.8427831,
  "latitude": 36.5869522,
  "timezone": "America/Los_Angeles",
  "country_code": "US",
  "wiki_url": "http://en.wikipedia.org/wiki/Monterey_Peninsula_Airport",
  "airport_flights_url": "/airports/KMRY/flights",
  "alternatives": []
},
{
  "airport_code": "KBIH",
  "alternate_ident": "BIH",
  "code_icao": "KBIH",
  "code_iata": "BIH",
  "code_lid": "BIH",
  "name": "Bishop",
  "type": "Airport",
  "elevation": 4124,
  "city": "Bishop",
  "state": "CA",
  "longitude": -118.3636111,
  "latitude": 37.3731111,
  "timezone": "America/Los_Angeles",
  "country_code": "US",
  "wiki_url": "http://en.wikipedia.org/wiki/Eastern_Sierra_Regional_Airport",
  "airport_flights_url": "/airports/KBIH/flights",
  "alternatives": []
},
{
  "airport_code": "KSLE",
  "alternate_ident": "SLE",
  "code_icao": "KSLE",
  "code_iata": null,
  "code_lid": "SLE",
  "name": "Mcnary Fld",
  "type": "Airport",
  "elevation": 213,
  "city": "Salem",
  "state": "OR",
  "longitude": -123.0025,
  "latitude": 44.9095278,
  "timezone": "America/Los_Angeles",
  "country_code": "US",
  "wiki_url": "http://en.wikipedia.org/wiki/McNary_Field",
  "airport_flights_url": "/airports/KSLE/flights",
  "alternatives": []
},
{
  "airport_code": "EDDM",
  "alternate_ident": "MUC",
  "code_icao": "EDDM",
  "code_iata": "MUC",
  "code_lid": null,
  "name": "Munich Int'l",
  "type": "Airport",
  "elevation": 1487,
  "city": "Munich",
  "state": "",
  "longitude": 11.786086,
  "latitude": 48.353783,
  "timezone": "Europe/Berlin",
  "country_code": "DE",
  "wiki_url": "https://en.wikipedia.org/wiki/Munich_Airport",
  "airport_flights_url": "/airports/EDDM/flights",
  "alternatives": []
},
{
  "airport_code": "LFPG",
  "alternate_ident": "CDG",
  "code_icao": "LFPG",
  "code_iata": "CDG",
  "code_lid": null,
  "name": "Charles de Gaulle/Roissy",
  "type": "Airport",
  "elevation": 392,
  "city": "Paris",
  "state": "",
  "longitude": 2.55,
  "latitude": 49.012779,
  "timezone": "Europe/Paris",
  "country_code": "FR",
  "wiki_url": "https://en.wikipedia.org/wiki/Charles_de_Gaulle_Airport",
  "airport_flights_url": "/airports/LFPG/flights",
  "alternatives": []
},
{
  "airport_code": "KCVO",
  "alternate_ident": "CVO",
  "code_icao": "KCVO",
  "code_iata": "CVO",
  "code_lid": "CVO",
  "name": "Corvallis Muni",
  "type": "Airport",
  "elevation": 249,
  "city": "Corvallis",
  "state": "OR",
  "longitude": -123.2894572,
  "latitude": 44.4968758,
  "timezone": "America/Los_Angeles",
  "country_code": "US",
  "wiki_url": "http://en.wikipedia.org/wiki/Corvallis_Municipal_Airport",
  "airport_flights_url": "/airports/KCVO/flights",
  "alternatives": []
},
{
  "airport_code": "CYYZ",
  "alternate_ident": "YYZ",
  "code_icao": "CYYZ",
  "code_iata": "YYZ",
  "code_lid": null,
  "name": "Toronto Pearson Int'l",
  "type": "Airport",
  "elevation": 569,
  "city": "Toronto",
  "state": "Ontario",
  "longitude": -79.630556,
  "latitude": 43.677223,
  "timezone": "America/Toronto",
  "country_code": "CA",
  "wiki_url": "https://en.wikipedia.org/wiki/Toronto_Pearson_International_Airport",
  "airport_flights_url": "/airports/CYYZ/flights",
  "alternatives": []
},
{
  "airport_code": "MMPR",
  "alternate_ident": "PVR",
  "code_icao": "MMPR",
  "code_iata": "PVR",
  "code_lid": null,
  "name": "Lic. Gustavo Diaz Ordaz Int'l",
  "type": "Airport",
  "elevation": 23,
  "city": "Puerto Vallarta",
  "state": "Jalisco",
  "longitude": -105.254167,
  "latitude": 20.680083,
  "timezone": "America/Mexico_City",
  "country_code": "MX",
  "wiki_url": "https://en.wikipedia.org/wiki/Lic._Gustavo_Díaz_Ordaz_International_Airport",
  "airport_flights_url": "/airports/MMPR/flights",
  "alternatives": []
},
{
  "airport_code": "EGLL",
  "alternate_ident": "LHR",
  "code_icao": "EGLL",
  "code_iata": "LHR",
  "code_lid": null,
  "name": "London Heathrow",
  "type": "Airport",
  "elevation": 83,
  "city": "London",
  "state": "England",
  "longitude": -0.461389,
  "latitude": 51.4775,
  "timezone": "Europe/London",
  "country_code": "GB",
  "wiki_url": "https://en.wikipedia.org/wiki/London_Heathrow_Airport",
  "airport_flights_url": "/airports/EGLL/flights",
  "alternatives": []
},
{
  "airport_code": "KOTH",
  "alternate_ident": "OTH",
  "code_icao": "KOTH",
  "code_iata": "OTH",
  "code_lid": "OTH",
  "name": "Southwest Oregon Rgnl",
  "type": "Airport",
  "elevation": 17,
  "city": "North Bend",
  "state": "OR",
  "longitude": -124.2470278,
  "latitude": 43.4169444,
  "timezone": "America/Los_Angeles",
  "country_code": "US",
  "wiki_url": "http://en.wikipedia.org/wiki/Southwest_Oregon_Regional_Airport",
  "airport_flights_url": "/airports/KOTH/flights",
  "alternatives": []
},
{
  "airport_code": "KASE",
  "alternate_ident": "ASE",
  "code_icao": "KASE",
  "code_iata": "ASE",
  "code_lid": "ASE",
  "name": "Aspen-Pitkin County",
  "type": "Airport",
  "elevation": 7837,
  "city": "Aspen",
  "state": "CO",
  "longitude": -106.8682222,
  "latitude": 39.2218889,
  "timezone": "America/Denver",
  "country_code": "US",
  "wiki_url": "http://en.wikipedia.org/wiki/Aspen-Pitkin_County_Airport",
  "airport_flights_url": "/airports/KASE/flights",
  "alternatives": []
},
{
  "airport_code": "OTHH",
  "alternate_ident": "DOH",
  "code_icao": "OTHH",
  "code_iata": "DOH",
  "code_lid": null,
  "name": "Hamad Int'l",
  "type": "Airport",
  "elevation": 13,
  "city": "Doha",
  "state": "",
  "longitude": 51.60806,
  "latitude": 25.27306,
  "timezone": "Asia/Qatar",
  "country_code": "QA",
  "wiki_url": "https://en.wikipedia.org/wiki/Hamad_International_Airport",
  "airport_flights_url": "/airports/OTHH/flights",
  "alternatives": []
},
{
  "airport_code": "LSZH",
  "alternate_ident": "ZRH",
  "code_icao": "LSZH",
  "code_iata": "ZRH",
  "code_lid": null,
  "name": "Zurich (Kloten)",
  "type": "Airport",
  "elevation": 1416,
  "city": "Zurich",
  "state": "",
  "longitude": 8.549167,
  "latitude": 47.464722,
  "timezone": "Europe/Zurich",
  "country_code": "CH",
  "wiki_url": "https://en.wikipedia.org/wiki/Zürich_Airport",
  "airport_flights_url": "/airports/LSZH/flights",
  "alternatives": []
},
{
  "airport_code": "KPSC",
  "alternate_ident": "PSC",
  "code_icao": "KPSC",
  "code_iata": "PSC",
  "code_lid": "PSC",
  "name": "Tri-Cities",
  "type": "Airport",
  "elevation": 410,
  "city": "Pasco",
  "state": "WA",
  "longitude": -119.1190239,
  "latitude": 46.2646817,
  "timezone": "America/Los_Angeles",
  "country_code": "US",
  "wiki_url": "http://en.wikipedia.org/wiki/Tri-Cities_Airport_(Washington)",
  "airport_flights_url": "/airports/KPSC/flights",
  "alternatives": []
},
{
  "airport_code": "KRNO",
  "alternate_ident": "RNO",
  "code_icao": "KRNO",
  "code_iata": "RNO",
  "code_lid": "RNO",
  "name": "Reno/Tahoe Intl",
  "type": "Airport",
  "elevation": 4414,
  "city": "Reno",
  "state": "NV",
  "longitude": -119.7681111,
  "latitude": 39.4991111,
  "timezone": "America/Los_Angeles",
  "country_code": "US",
  "wiki_url": "http://en.wikipedia.org/wiki/Reno/Tahoe_International_Airport",
  "airport_flights_url": "/airports/KRNO/flights",
  "alternatives": []
},
{
  "airport_code": "KSBD",
  "alternate_ident": "SBD",
  "code_icao": "KSBD",
  "code_iata": "SBD",
  "code_lid": "SBD",
  "name": "San Bernardino Intl",
  "type": "Airport",
  "elevation": 1159,
  "city": "San Bernardino",
  "state": "CA",
  "longitude": -117.2348889,
  "latitude": 34.0953611,
  "timezone": "America/Los_Angeles",
  "country_code": "US",
  "wiki_url": "http://en.wikipedia.org/wiki/San_Bernardino_International_Airport",
  "airport_flights_url": "/airports/KSBD/flights",
  "alternatives": []
},
{
  "airport_code": "LTFM",
  "alternate_ident": "IST",
  "code_icao": "LTFM",
  "code_iata": "IST",
  "code_lid": null,
  "name": "Istanbul Airport",
  "type": "Airport",
  "elevation": 325,
  "city": "Istanbul",
  "state": "",
  "longitude": 28.727778,
  "latitude": 41.262222,
  "timezone": "Europe/Istanbul",
  "country_code": "TR",
  "wiki_url": "https://en.wikipedia.org/wiki/Istanbul_New_Airport",
  "airport_flights_url": "/airports/LTFM/flights",
  "alternatives": []
},
{
  "airport_code": "KAFW",
  "alternate_ident": "AFW",
  "code_icao": "KAFW",
  "code_iata": "AFW",
  "code_lid": "AFW",
  "name": "Fort Worth Alliance",
  "type": "Airport",
  "elevation": 723,
  "city": "Fort Worth",
  "state": "TX",
  "longitude": -97.3194406,
  "latitude": 32.9903858,
  "timezone": "America/Chicago",
  "country_code": "US",
  "wiki_url": "http://en.wikipedia.org/wiki/Fort_Worth_Alliance_Airport",
  "airport_flights_url": "/airports/KAFW/flights",
  "alternatives": []
},
{
  "airport_code": "WSSS",
  "alternate_ident": "SIN",
  "code_icao": "WSSS",
  "code_iata": "SIN",
  "code_lid": null,
  "name": "Singapore Changi",
  "type": "Airport",
  "elevation": 10,
  "city": "Singapore",
  "state": "",
  "longitude": 103.987458,
  "latitude": 1.355717,
  "timezone": "Asia/Singapore",
  "country_code": "SG",
  "wiki_url": "https://en.wikipedia.org/wiki/Singapore_Changi_Airport",
  "airport_flights_url": "/airports/WSSS/flights",
  "alternatives": []
},
{
  "airport_code": "KPHL",
  "alternate_ident": "PHL",
  "code_icao": "KPHL",
  "code_iata": "PHL",
  "code_lid": "PHL",
  "name": "Philadelphia Intl",
  "type": "Airport",
  "elevation": 35,
  "city": "Philadelphia",
  "state": "PA",
  "longitude": -75.2406631,
  "latitude": 39.8720839,
  "timezone": "America/New_York",
  "country_code": "US",
  "wiki_url": "http://en.wikipedia.org/wiki/Philadelphia_International_Airport",
  "airport_flights_url": "/airports/KPHL/flights",
  "alternatives": []
},
{
  "airport_code": "MMMX",
  "alternate_ident": "MEX",
  "code_icao": "MMMX",
  "code_iata": "MEX",
  "code_lid": null,
  "name": "Lic. Benito Juarez Int'l",
  "type": "Airport",
  "elevation": 7316,
  "city": "Mexico City",
  "state": "",
  "longitude": -99.072097,
  "latitude": 19.436303,
  "timezone": "America/Mexico_City",
  "country_code": "MX",
  "wiki_url": "https://en.wikipedia.org/wiki/Benito_Juárez_International_Airport",
  "airport_flights_url": "/airports/MMMX/flights",
  "alternatives": []
},
{
  "airport_code": "CYYC",
  "alternate_ident": "YYC",
  "code_icao": "CYYC",
  "code_iata": "YYC",
  "code_lid": null,
  "name": "Calgary Int'l",
  "type": "Airport",
  "elevation": 3557,
  "city": "Calgary",
  "state": "Alberta",
  "longitude": -114.013333,
  "latitude": 51.1225,
  "timezone": "America/Edmonton",
  "country_code": "CA",
  "wiki_url": "https://en.wikipedia.org/wiki/Calgary_International_Airport",
  "airport_flights_url": "/airports/CYYC/flights",
  "alternatives": []
},
{
  "airport_code": "LPPT",
  "alternate_ident": "LIS",
  "code_icao": "LPPT",
  "code_iata": "LIS",
  "code_lid": null,
  "name": "General Humberto Delgado Airport",
  "type": "Airport",
  "elevation": 374,
  "city": "Lisbon",
  "state": "",
  "longitude": -9.135919,
  "latitude": 38.781311,
  "timezone": "Europe/Lisbon",
  "country_code": "PT",
  "wiki_url": "https://en.wikipedia.org/wiki/Lisbon_Airport",
  "airport_flights_url": "/airports/LPPT/flights",
  "alternatives": []
},
{
  "airport_code": "KMSO",
  "alternate_ident": "MSO",
  "code_icao": "KMSO",
  "code_iata": "MSO",
  "code_lid": "MSO",
  "name": "Missoula Montana",
  "type": "Airport",
  "elevation": 3205,
  "city": "Missoula",
  "state": "MT",
  "longitude": -114.0905556,
  "latitude": 46.9163056,
  "timezone": "America/Denver",
  "country_code": "US",
  "wiki_url": "http://en.wikipedia.org/wiki/Missoula_International_Airport",
  "airport_flights_url": "/airports/KMSO/flights",
  "alternatives": []
},
{
  "airport_code": "KGPI",
  "alternate_ident": "GPI",
  "code_icao": "KGPI",
  "code_iata": "FCA",
  "code_lid": "GPI",
  "name": "Glacier Park Intl",
  "type": "Airport",
  "elevation": 2976,
  "city": "Kalispell",
  "state": "MT",
  "longitude": -114.256,
  "latitude": 48.3105,
  "timezone": "America/Denver",
  "country_code": "US",
  "wiki_url": "http://en.wikipedia.org/wiki/Glacier_Park_International_Airport",
  "airport_flights_url": "/airports/KGPI/flights",
  "alternatives": []
},
{
  "airport_code": "KFAT",
  "alternate_ident": "FAT",
  "code_icao": "KFAT",
  "code_iata": "FAT",
  "code_lid": "FAT",
  "name": "Fresno Yosemite Intl",
  "type": "Airport",
  "elevation": 335,
  "city": "Fresno",
  "state": "CA",
  "longitude": -119.7188333,
  "latitude": 36.7765556,
  "timezone": "America/Los_Angeles",
  "country_code": "US",
  "wiki_url": "http://en.wikipedia.org/wiki/Fresno_Yosemite_International_Airport",
  "airport_flights_url": "/airports/KFAT/flights",
  "alternatives": []
},
{
  "airport_code": "KRIC",
  "alternate_ident": "RIC",
  "code_icao": "KRIC",
  "code_iata": "RIC",
  "code_lid": "RIC",
  "name": "Richmond Intl",
  "type": "Airport",
  "elevation": 167,
  "city": "Richmond",
  "state": "VA",
  "longitude": -77.3197386,
  "latitude": 37.5051811,
  "timezone": "America/New_York",
  "country_code": "US",
  "wiki_url": "http://en.wikipedia.org/wiki/Richmond_International_Airport",
  "airport_flights_url": "/airports/KRIC/flights",
  "alternatives": []
},
{
  "airport_code": "KPAE",
  "alternate_ident": "PAE",
  "code_icao": "KPAE",
  "code_iata": "PAE",
  "code_lid": "PAE",
  "name": "Snohomish County",
  "type": "Airport",
  "elevation": 606,
  "city": "Everett",
  "state": "WA",
  "longitude": -122.2820939,
  "latitude": 47.9073181,
  "timezone": "America/Los_Angeles",
  "country_code": "US",
  "wiki_url": "http://en.wikipedia.org/wiki/Snohomish_County_Airport",
  "airport_flights_url": "/airports/KPAE/flights",
  "alternatives": []
},
{
  "airport_code": "MMGL",
  "alternate_ident": "GDL",
  "code_icao": "MMGL",
  "code_iata": "GDL",
  "code_lid": null,
  "name": "Don Miguel Hidalgo y Costilla Int'l",
  "type": "Airport",
  "elevation": 5016,
  "city": "Guadalajara",
  "state": "Jalisco",
  "longitude": -103.311167,
  "latitude": 20.5218,
  "timezone": "America/Mexico_City",
  "country_code": "MX",
  "wiki_url": "https://en.wikipedia.org/wiki/Miguel_Hidalgo_y_Costilla_International_Airport",
  "airport_flights_url": "/airports/MMGL/flights",
  "alternatives": []
},
{
  "airport_code": "KPIT",
  "alternate_ident": "PIT",
  "code_icao": "KPIT",
  "code_iata": "PIT",
  "code_lid": "PIT",
  "name": "Pittsburgh Intl",
  "type": "Airport",
  "elevation": 1202,
  "city": "Pittsburgh",
  "state": "PA",
  "longitude": -80.2326944,
  "latitude": 40.4914167,
  "timezone": "America/New_York",
  "country_code": "US",
  "wiki_url": "http://en.wikipedia.org/wiki/Pittsburgh_International",
  "airport_flights_url": "/airports/KPIT/flights",
  "alternatives": []
},
{
  "airport_code": "KMSN",
  "alternate_ident": "MSN",
  "code_icao": "KMSN",
  "code_iata": "MSN",
  "code_lid": "MSN",
  "name": "Dane Co Rgnl",
  "type": "Airport",
  "elevation": 886,
  "city": "Madison",
  "state": "WI",
  "longitude": -89.3375045,
  "latitude": 43.1398791,
  "timezone": "America/Chicago",
  "country_code": "US",
  "wiki_url": "http://en.wikipedia.org/wiki/Dane_County_Regional_Airport",
  "airport_flights_url": "/airports/KMSN/flights",
  "alternatives": []
},
{
  "airport_code": "NTAA",
  "alternate_ident": "PPT",
  "code_icao": "NTAA",
  "code_iata": "PPT",
  "code_lid": null,
  "name": "Фааа",
  "type": "Airport",
  "elevation": 5,
  "city": "Faa'a",
  "state": "Tahiti",
  "longitude": -149.607236,
  "latitude": -17.55375,
  "timezone": "Pacific/Tahiti",
  "country_code": "PF",
  "wiki_url": "https://en.wikipedia.org/wiki/Faa%27a_International_Airport",
  "airport_flights_url": "/airports/NTAA/flights",
  "alternatives": []
},
{
  "airport_code": "KLAL",
  "alternate_ident": "LAL",
  "code_icao": "KLAL",
  "code_iata": null,
  "code_lid": "LAL",
  "name": "Lakeland Linder Intl",
  "type": "Airport",
  "elevation": 141,
  "city": "Lakeland",
  "state": "FL",
  "longitude": -82.019,
  "latitude": 27.9876389,
  "timezone": "America/New_York",
  "country_code": "US",
  "wiki_url": "http://en.wikipedia.org/wiki/Lakeland_Linder_Regional_Airport",
  "airport_flights_url": "/airports/KLAL/flights",
  "alternatives": []
},
{
  "airport_code": "MPTO",
  "alternate_ident": "PTY",
  "code_icao": "MPTO",
  "code_iata": "PTY",
  "code_lid": null,
  "name": "Tocumen Int'l",
  "type": "Airport",
  "elevation": 135,
  "city": "Panama City",
  "state": "",
  "longitude": -79.383453,
  "latitude": 9.071364,
  "timezone": "America/Panama",
  "country_code": "PA",
  "wiki_url": "https://en.wikipedia.org/wiki/Tocumen_International_Airport",
  "airport_flights_url": "/airports/MPTO/flights",
  "alternatives": []
},
{
  "airport_code": "PHLI",
  "alternate_ident": "LIH",
  "code_icao": "PHLI",
  "code_iata": "LIH",
  "code_lid": "LIH",
  "name": "Lihue",
  "type": "Airport",
  "elevation": 152,
  "city": "Lihue",
  "state": "HI",
  "longitude": -159.3389578,
  "latitude": 21.9759833,
  "timezone": "Pacific/Honolulu",
  "country_code": "US",
  "wiki_url": "http://en.wikipedia.org/wiki/Lihue_Airport",
  "airport_flights_url": "/airports/PHLI/flights",
  "alternatives": []
},
{
  "airport_code": "LLBG",
  "alternate_ident": "TLV",
  "code_icao": "LLBG",
  "code_iata": "TLV",
  "code_lid": null,
  "name": "имени Давида Бен-Гуриона",
  "type": "Airport",
  "elevation": 135,
  "city": "Tel Aviv",
  "state": "",
  "longitude": 34.876898,
  "latitude": 32.0095,
  "timezone": "Asia/Jerusalem",
  "country_code": "IL",
  "wiki_url": "https://en.wikipedia.org/wiki/Ben_Gurion_Airport",
  "airport_flights_url": "/airports/LLBG/flights",
  "alternatives": []
},
{
  "airport_code": "KCLE",
  "alternate_ident": "CLE",
  "code_icao": "KCLE",
  "code_iata": "CLE",
  "code_lid": "CLE",
  "name": "Cleveland",
  "type": "Airport",
  "elevation": 799,
  "city": "Cleveland",
  "state": "OH",
  "longitude": -81.8546911,
  "latitude": 41.4094069,
  "timezone": "America/New_York",
  "country_code": "US",
  "wiki_url": "http://en.wikipedia.org/wiki/Cleveland-Hopkins_International_Airport",
  "airport_flights_url": "/airports/KCLE/flights",
  "alternatives": []
},
{
  "airport_code": "KILN",
  "alternate_ident": "ILN",
  "code_icao": "KILN",
  "code_iata": "ILN",
  "code_lid": "ILN",
  "name": "Wilmington Air Park",
  "type": "Airport",
  "elevation": 1076,
  "city": "Wilmington",
  "state": "OH",
  "longitude": -83.7921111,
  "latitude": 39.4279167,
  "timezone": "America/New_York",
  "country_code": "US",
  "wiki_url": "http://en.wikipedia.org/wiki/Wilmington_Air_Park",
  "airport_flights_url": "/airports/KILN/flights",
  "alternatives": []
},
{
  "airport_code": "VVTS",
  "alternate_ident": "SGN",
  "code_icao": "VVTS",
  "code_iata": "SGN",
  "code_lid": null,
  "name": "Tan Son Nhat Int'l",
  "type": "Airport",
  "elevation": 33,
  "city": "Ho Chi Minh City",
  "state": "",
  "longitude": 106.651856,
  "latitude": 10.818797,
  "timezone": "Asia/Ho_Chi_Minh",
  "country_code": "VN",
  "wiki_url": "https://en.wikipedia.org/wiki/Tan_Son_Nhat_International_Airport",
  "airport_flights_url": "/airports/VVTS/flights",
  "alternatives": []
},
{
  "airport_code": "KBFL",
  "alternate_ident": "BFL",
  "code_icao": "KBFL",
  "code_iata": "BFL",
  "code_lid": "BFL",
  "name": "Meadows Fld",
  "type": "Airport",
  "elevation": 509,
  "city": "Bakersfield",
  "state": "CA",
  "longitude": -119.0576667,
  "latitude": 35.4338611,
  "timezone": "America/Los_Angeles",
  "country_code": "US",
  "wiki_url": "http://en.wikipedia.org/wiki/Meadows_Field",
  "airport_flights_url": "/airports/KBFL/flights",
  "alternatives": []
},
{
  "airport_code": "VHHH",
  "alternate_ident": "HKG",
  "code_icao": "VHHH",
  "code_iata": "HKG",
  "code_lid": null,
  "name": "Чхеклапкок",
  "type": "Airport",
  "elevation": 28,
  "city": "Hong Kong",
  "state": "",
  "longitude": 113.914603,
  "latitude": 22.308919,
  "timezone": "Asia/Hong_Kong",
  "country_code": "HK",
  "wiki_url": "https://en.wikipedia.org/wiki/Hong_Kong_International_Airport",
  "airport_flights_url": "/airports/VHHH/flights",
  "alternatives": []
},
{
  "airport_code": "RPLL",
  "alternate_ident": "MNL",
  "code_icao": "RPLL",
  "code_iata": "MNL",
  "code_lid": null,
  "name": "Manila Int'l",
  "type": "Airport",
  "elevation": 75,
  "city": "Metro Manila",
  "state": "",
  "longitude": 121.019722,
  "latitude": 14.508333,
  "timezone": "Asia/Manila",
  "country_code": "PH",
  "wiki_url": "https://en.wikipedia.org/wiki/Ninoy_Aquino_International_Airport",
  "airport_flights_url": "/airports/RPLL/flights",
  "alternatives": []
},
{
  "airport_code": "YSSY",
  "alternate_ident": "SYD",
  "code_icao": "YSSY",
  "code_iata": "SYD",
  "code_lid": null,
  "name": "Sydney",
  "type": "Airport",
  "elevation": 21,
  "city": "Sydney",
  "state": "New South Wales",
  "longitude": 151.177222,
  "latitude": -33.946111,
  "timezone": "Australia/Sydney",
  "country_code": "AU",
  "wiki_url": "https://en.wikipedia.org/wiki/Sydney_Airport",
  "airport_flights_url": "/airports/YSSY/flights",
  "alternatives": []
},
{
  "airport_code": "KSTS",
  "alternate_ident": "STS",
  "code_icao": "KSTS",
  "code_iata": "STS",
  "code_lid": "STS",
  "name": "Schulz-Sonoma County",
  "type": "Airport",
  "elevation": 128,
  "city": "Santa Rosa",
  "state": "CA",
  "longitude": -122.8128889,
  "latitude": 38.5096944,
  "timezone": "America/Los_Angeles",
  "country_code": "US",
  "wiki_url": "http://en.wikipedia.org/wiki/Sonoma_County_Airport",
  "airport_flights_url": "/airports/KSTS/flights",
  "alternatives": []
},
{
  "airport_code": "NZAA",
  "alternate_ident": "AKL",
  "code_icao": "NZAA",
  "code_iata": "AKL",
  "code_lid": null,
  "name": "Auckland",
  "type": "Airport",
  "elevation": 23,
  "city": "Auckland",
  "state": "",
  "longitude": 174.791667,
  "latitude": -37.008056,
  "timezone": "Pacific/Auckland",
  "country_code": "NZ",
  "wiki_url": "https://en.wikipedia.org/wiki/Auckland_Airport",
  "airport_flights_url": "/airports/NZAA/flights",
  "alternatives": []
},
{
  "airport_code": "KCVG",
  "alternate_ident": "CVG",
  "code_icao": "KCVG",
  "code_iata": "CVG",
  "code_lid": "CVG",
  "name": "Cincinnati/Northern Kentucky",
  "type": "Airport",
  "elevation": 896,
  "city": "Hebron",
  "state": "KY",
  "longitude": -84.6678208,
  "latitude": 39.0488375,
  "timezone": "America/New_York",
  "country_code": "US",
  "wiki_url": "https://en.wikipedia.org/wiki/Cincinnati/Northern_Kentucky_International_Airport",
  "airport_flights_url": "/airports/KCVG/flights",
  "alternatives": []
},
{
  "airport_code": "KMSY",
  "alternate_ident": "MSY",
  "code_icao": "KMSY",
  "code_iata": "MSY",
  "code_lid": "MSY",
  "name": "New Orleans Intl",
  "type": "Airport",
  "elevation": 3,
  "city": "New Orleans",
  "state": "LA",
  "longitude": -90.2590278,
  "latitude": 29.9932778,
  "timezone": "America/Chicago",
  "country_code": "US",
  "wiki_url": "http://en.wikipedia.org/wiki/New_Orleans_International_Airport",
  "airport_flights_url": "/airports/KMSY/flights",
  "alternatives": []
},
{
  "airport_code": "SBGR",
  "alternate_ident": "GRU",
  "code_icao": "SBGR",
  "code_iata": "GRU",
  "code_lid": null,
  "name": "São Paulo-Guarulhos Int'l",
  "type": "Airport",
  "elevation": 2459,
  "city": "Sao Paulo",
  "state": "",
  "longitude": -46.469511,
  "latitude": -23.432075,
  "timezone": "America/Sao_Paulo",
  "country_code": "BR",
  "wiki_url": "https://en.wikipedia.org/wiki/São_Paulo-Guarulhos_International_Airport",
  "airport_flights_url": "/airports/SBGR/flights",
  "alternatives": []
},
{
  "airport_code": "KGSO",
  "alternate_ident": "GSO",
  "code_icao": "KGSO",
  "code_iata": "GSO",
  "code_lid": "GSO",
  "name": "Piedmont Triad Intl",
  "type": "Airport",
  "elevation": 925,
  "city": "Greensboro",
  "state": "NC",
  "longitude": -79.9411228,
  "latitude": 36.1013267,
  "timezone": "America/New_York",
  "country_code": "US",
  "wiki_url": "http://en.wikipedia.org/wiki/Piedmont_Triad_International_Airport",
  "airport_flights_url": "/airports/KGSO/flights",
  "alternatives": []
},
{
  "airport_code": "KLAN",
  "alternate_ident": "LAN",
  "code_icao": "KLAN",
  "code_iata": "LAN",
  "code_lid": "LAN",
  "name": "Capital Region Intl",
  "type": "Airport",
  "elevation": 860,
  "city": "Lansing",
  "state": "MI",
  "longitude": -84.5861944,
  "latitude": 42.7786389,
  "timezone": "America/New_York",
  "country_code": "US",
  "wiki_url": "http://en.wikipedia.org/wiki/Capital_Region_International_Airport",
  "airport_flights_url": "/airports/KLAN/flights",
  "alternatives": []
},
{
  "airport_code": "KOAK",
  "alternate_ident": "OAK",
  "code_icao": "KOAK",
  "code_iata": "OAK",
  "code_lid": "OAK",
  "name": "Metro Oakland Intl",
  "type": "Airport",
  "elevation": 9,
  "city": "Oakland",
  "state": "CA",
  "longitude": -122.2211389,
  "latitude": 37.72125,
  "timezone": "America/Los_Angeles",
  "country_code": "US",
  "wiki_url": "http://en.wikipedia.org/wiki/Metropolitan_Oakland_International_Airport",
  "airport_flights_url": "/airports/KOAK/flights",
  "alternatives": []
},
{
  "airport_code": "ELLX",
  "alternate_ident": "LUX",
  "code_icao": "ELLX",
  "code_iata": "LUX",
  "code_lid": null,
  "name": "Luxembourg Findel",
  "type": "Airport",
  "elevation": 1234,
  "city": "Luxembourg",
  "state": "",
  "longitude": 6.211517,
  "latitude": 49.626575,
  "timezone": "Europe/Luxembourg",
  "country_code": "LU",
  "wiki_url": "https://en.wikipedia.org/wiki/Luxembourg_Findel_Airport",
  "airport_flights_url": "/airports/ELLX/flights",
  "alternatives": []
},
{
  "airport_code": "KTUL",
  "alternate_ident": "TUL",
  "code_icao": "KTUL",
  "code_iata": "TUL",
  "code_lid": "TUL",
  "name": "Tulsa Intl",
  "type": "Airport",
  "elevation": 677,
  "city": "Tulsa",
  "state": "OK",
  "longitude": -95.8881056,
  "latitude": 36.1983936,
  "timezone": "America/Chicago",
  "country_code": "US",
  "wiki_url": "http://en.wikipedia.org/wiki/Tulsa_International_Airport",
  "airport_flights_url": "/airports/KTUL/flights",
  "alternatives": []
},
{
  "airport_code": "KERI",
  "alternate_ident": "ERI",
  "code_icao": "KERI",
  "code_iata": "ERI",
  "code_lid": "ERI",
  "name": "Erie Intl/Tom Ridge Fld",
  "type": "Airport",
  "elevation": 732,
  "city": "Erie",
  "state": "PA",
  "longitude": -80.1739444,
  "latitude": 42.0830833,
  "timezone": "America/New_York",
  "country_code": "US",
  "wiki_url": "http://en.wikipedia.org/wiki/Erie_International_Airport",
  "airport_flights_url": "/airports/KERI/flights",
  "alternatives": []
},
{
  "airport_code": "KFWA",
  "alternate_ident": "FWA",
  "code_icao": "KFWA",
  "code_iata": "FWA",
  "code_lid": "FWA",
  "name": "Fort Wayne Intl",
  "type": "Airport",
  "elevation": 814,
  "city": "Fort Wayne",
  "state": "IN",
  "longitude": -85.1951667,
  "latitude": 40.9784722,
  "timezone": "America/New_York",
  "country_code": "US",
  "wiki_url": "http://en.wikipedia.org/wiki/Fort_Wayne_International_Airport",
  "airport_flights_url": "/airports/KFWA/flights",
  "alternatives": []
},
{
  "airport_code": "KRIV",
  "alternate_ident": "RIV",
  "code_icao": "KRIV",
  "code_iata": "RIV",
  "code_lid": "RIV",
  "name": "March Arb",
  "type": "Airport",
  "elevation": 1536,
  "city": "Riverside",
  "state": "CA",
  "longitude": -117.2590169,
  "latitude": 33.8819433,
  "timezone": "America/Los_Angeles",
  "country_code": "US",
  "wiki_url": "http://en.wikipedia.org/wiki/March_Air_Reserve_Base",
  "airport_flights_url": "/airports/KRIV/flights",
  "alternatives": []
},
{
  "airport_code": "OMAA",
  "alternate_ident": "AUH",
  "code_icao": "OMAA",
  "code_iata": "AUH",
  "code_lid": null,
  "name": "Abu Dhabi Int'l",
  "type": "Airport",
  "elevation": 88,
  "city": "Abu Dhabi",
  "state": "",
  "longitude": 54.651138,
  "latitude": 24.432972,
  "timezone": "Asia/Dubai",
  "country_code": "AE",
  "wiki_url": "https://en.wikipedia.org/wiki/Abu_Dhabi_International_Airport",
  "airport_flights_url": "/airports/OMAA/flights",
  "alternatives": []
},
{
  "airport_code": "MMMM",
  "alternate_ident": "MLM",
  "code_icao": "MMMM",
  "code_iata": "MLM",
  "code_lid": null,
  "name": "General Francisco J. Mujica Int'l",
  "type": "Airport",
  "elevation": 6033,
  "city": "Морелия MX",
  "state": "Michoacan",
  "longitude": -101.0255,
  "latitude": 19.849944,
  "timezone": "America/Mexico_City",
  "country_code": "MX",
  "wiki_url": "https://en.wikipedia.org/wiki/General_Francisco_J._Mujica_International_Airport",
  "airport_flights_url": "/airports/MMMM/flights",
  "alternatives": []
},
{
  "airport_code": "PAFA",
  "alternate_ident": "FAI",
  "code_icao": "PAFA",
  "code_iata": "FAI",
  "code_lid": "FAI",
  "name": "Fairbanks",
  "type": "Airport",
  "elevation": 439,
  "city": "Fairbanks",
  "state": "AK",
  "longitude": -147.8566592,
  "latitude": 64.8153544,
  "timezone": "America/Anchorage",
  "country_code": "US",
  "wiki_url": "http://en.wikipedia.org/wiki/Fairbanks_International_Airport",
  "airport_flights_url": "/airports/PAFA/flights",
  "alternatives": []
},
{
  "airport_code": "KLEX",
  "alternate_ident": "LEX",
  "code_icao": "KLEX",
  "code_iata": "LEX",
  "code_lid": "LEX",
  "name": "Blue Grass",
  "type": "Airport",
  "elevation": 979,
  "city": "Lexington",
  "state": "KY",
  "longitude": -84.6086389,
  "latitude": 38.03675,
  "timezone": "America/New_York",
  "country_code": "US",
  "wiki_url": "http://en.wikipedia.org/wiki/Blue_Grass_Airport",
  "airport_flights_url": "/airports/KLEX/flights",
  "alternatives": []
},
{
  "airport_code": "KSTL",
  "alternate_ident": "STL",
  "code_icao": "KSTL",
  "code_iata": "STL",
  "code_lid": "STL",
  "name": "St Louis Lambert Intl",
  "type": "Airport",
  "elevation": 617,
  "city": "St Louis",
  "state": "MO",
  "longitude": -90.3700257,
  "latitude": 38.7486982,
  "timezone": "America/Chicago",
  "country_code": "US",
  "wiki_url": "http://en.wikipedia.org/wiki/Lambert-St_Louis_International",
  "airport_flights_url": "/airports/KSTL/flights",
  "alternatives": []
},
{
  "airport_code": "KEAU",
  "alternate_ident": "EAU",
  "code_icao": "KEAU",
  "code_iata": "EAU",
  "code_lid": "EAU",
  "name": "Chippewa Valley Rgnl",
  "type": "Airport",
  "elevation": 913,
  "city": "Eau Claire",
  "state": "WI",
  "longitude": -91.48425,
  "latitude": 44.8658056,
  "timezone": "America/Chicago",
  "country_code": "US",
  "wiki_url": "http://en.wikipedia.org/wiki/Chippewa_Valley_Regional_Airport",
  "airport_flights_url": "/airports/KEAU/flights",
  "alternatives": []
},
{
  "airport_code": "MMLO",
  "alternate_ident": "BJX",
  "code_icao": "MMLO",
  "code_iata": "BJX",
  "code_lid": null,
  "name": "Del Bajio Guanajuato Int'l",
  "type": "Airport",
  "elevation": 5956,
  "city": "Silao",
  "state": "Guanajuato",
  "longitude": -101.480847,
  "latitude": 20.993464,
  "timezone": "America/Mexico_City",
  "country_code": "MX",
  "wiki_url": "https://en.wikipedia.org/wiki/Del_Bajío_International_Airport",
  "airport_flights_url": "/airports/MMLO/flights",
  "alternatives": []
},
{
  "airport_code": "BIKF",
  "alternate_ident": "KEF",
  "code_icao": "BIKF",
  "code_iata": "KEF",
  "code_lid": null,
  "name": "Keflavik Int'l",
  "type": "Airport",
  "elevation": 171,
  "city": "Keflavik IS",
  "state": "",
  "longitude": -22.605556,
  "latitude": 63.985,
  "timezone": "Atlantic/Reykjavik",
  "country_code": "IS",
  "wiki_url": "https://en.wikipedia.org/wiki/Keflavík_International_Airport",
  "airport_flights_url": "/airports/BIKF/flights",
  "alternatives": []
},
{
  "airport_code": "KTVC",
  "alternate_ident": "TVC",
  "code_icao": "KTVC",
  "code_iata": "TVC",
  "code_lid": "TVC",
  "name": "Cherry Capital",
  "type": "Airport",
  "elevation": 623,
  "city": "Traverse City",
  "state": "MI",
  "longitude": -85.58187,
  "latitude": 44.7415786,
  "timezone": "America/New_York",
  "country_code": "US",
  "wiki_url": "http://en.wikipedia.org/wiki/Cherry_Capital_Airport",
  "airport_flights_url": "/airports/KTVC/flights",
  "alternatives": []
},
{
  "airport_code": "KMBS",
  "alternate_ident": "MBS",
  "code_icao": "KMBS",
  "code_iata": "MBS",
  "code_lid": "MBS",
  "name": "MBS Intl",
  "type": "Airport",
  "elevation": 668,
  "city": "Saginaw",
  "state": "MI",
  "longitude": -84.0796358,
  "latitude": 43.5329269,
  "timezone": "America/New_York",
  "country_code": "US",
  "wiki_url": "http://en.wikipedia.org/wiki/MBS_International_Airport",
  "airport_flights_url": "/airports/KMBS/flights",
  "alternatives": []
},
{
  "airport_code": "UBBB",
  "alternate_ident": "GYD",
  "code_icao": "UBBB",
  "code_iata": "GYD",
  "code_lid": null,
  "name": "Heydar Aliyev Int'l",
  "type": "Airport",
  "elevation": 10,
  "city": "Baku",
  "state": "",
  "longitude": 50.046667,
  "latitude": 40.4675,
  "timezone": "Asia/Baku",
  "country_code": "AZ",
  "wiki_url": "https://en.wikipedia.org/wiki/Heydar_Aliyev_International_Airport",
  "airport_flights_url": "/airports/UBBB/flights",
  "alternatives": []
},
{
  "airport_code": "LIMC",
  "alternate_ident": "MXP",
  "code_icao": "LIMC",
  "code_iata": "MXP",
  "code_lid": null,
  "name": "Milan Malpensa Airport",
  "type": "Airport",
  "elevation": 767,
  "city": "Milan",
  "state": "",
  "longitude": 8.728111,
  "latitude": 45.630606,
  "timezone": "Europe/Rome",
  "country_code": "IT",
  "wiki_url": "https://en.wikipedia.org/wiki/Malpensa_Airport",
  "airport_flights_url": "/airports/LIMC/flights",
  "alternatives": []
},
{
  "airport_code": "KFNT",
  "alternate_ident": "FNT",
  "code_icao": "KFNT",
  "code_iata": "FNT",
  "code_lid": "FNT",
  "name": "Bishop Intl",
  "type": "Airport",
  "elevation": 782,
  "city": "Flint",
  "state": "MI",
  "longitude": -83.74475,
  "latitude": 42.9654722,
  "timezone": "America/New_York",
  "country_code": "US",
  "wiki_url": "http://en.wikipedia.org/wiki/Bishop_International_Airport",
  "airport_flights_url": "/airports/KFNT/flights",
  "alternatives": []
},
{
  "airport_code": "KRSW",
  "alternate_ident": "RSW",
  "code_icao": "KRSW",
  "code_iata": "RSW",
  "code_lid": "RSW",
  "name": "Southwest Florida Intl",
  "type": "Airport",
  "elevation": 29,
  "city": "Fort Myers",
  "state": "FL",
  "longitude": -81.7551667,
  "latitude": 26.5361667,
  "timezone": "America/New_York",
  "country_code": "US",
  "wiki_url": "http://en.wikipedia.org/wiki/Southwest_Florida_International_Airport",
  "airport_flights_url": "/airports/KRSW/flights",
  "alternatives": []
},
{
  "airport_code": "KGRR",
  "alternate_ident": "GRR",
  "code_icao": "KGRR",
  "code_iata": "GRR",
  "code_lid": "GRR",
  "name": "Gerald R Ford Intl",
  "type": "Airport",
  "elevation": 793,
  "city": "Grand Rapids",
  "state": "MI",
  "longitude": -85.5228056,
  "latitude": 42.8808333,
  "timezone": "America/New_York",
  "country_code": "US",
  "wiki_url": "http://en.wikipedia.org/wiki/Gerald_R._Ford_International_Airport",
  "airport_flights_url": "/airports/KGRR/flights",
  "alternatives": []
},
{
  "airport_code": "KSJC",
  "alternate_ident": "SJC",
  "code_icao": "KSJC",
  "code_iata": "SJC",
  "code_lid": "SJC",
  "name": "San Jose Int'l",
  "type": "Airport",
  "elevation": 62,
  "city": "San Jose",
  "state": "CA",
  "longitude": -121.9286206,
  "latitude": 37.3629947,
  "timezone": "America/Los_Angeles",
  "country_code": "US",
  "wiki_url": "http://en.wikipedia.org/wiki/San_Jose_International_Airport",
  "airport_flights_url": "/airports/KSJC/flights",
  "alternatives": []
},
{
  "airport_code": "KMFE",
  "alternate_ident": "MFE",
  "code_icao": "KMFE",
  "code_iata": "MFE",
  "code_lid": "MFE",
  "name": "Mc Allen Miller Intl",
  "type": "Airport",
  "elevation": 107,
  "city": "Mc Allen",
  "state": "TX",
  "longitude": -98.2386111,
  "latitude": 26.1758333,
  "timezone": "America/Chicago",
  "country_code": "US",
  "wiki_url": "http://en.wikipedia.org/wiki/Mc_Allen_Miller_International_Airport",
  "airport_flights_url": "/airports/KMFE/flights",
  "alternatives": []
},
{
  "airport_code": "KBHM",
  "alternate_ident": "BHM",
  "code_icao": "KBHM",
  "code_iata": "BHM",
  "code_lid": "BHM",
  "name": "Birmingham-Shuttlesworth Intl",
  "type": "Airport",
  "elevation": 650,
  "city": "Birmingham",
  "state": "AL",
  "longitude": -86.7523056,
  "latitude": 33.5638889,
  "timezone": "America/Chicago",
  "country_code": "US",
  "wiki_url": "http://en.wikipedia.org/wiki/Birmingham-Shuttlesworth_International_Airport",
  "airport_flights_url": "/airports/KBHM/flights",
  "alternatives": []
},
{
  "airport_code": "KLBB",
  "alternate_ident": "LBB",
  "code_icao": "KLBB",
  "code_iata": "LBB",
  "code_lid": "LBB",
  "name": "Lubbock Smith Intl",
  "type": "Airport",
  "elevation": 3282,
  "city": "Lubbock",
  "state": "TX",
  "longitude": -101.8205556,
  "latitude": 33.6636667,
  "timezone": "America/Chicago",
  "country_code": "US",
  "wiki_url": "http://en.wikipedia.org/wiki/Lubbock_Preston_Smith_International_Airport",
  "airport_flights_url": "/airports/KLBB/flights",
  "alternatives": []
},
{
  "airport_code": "SBGL",
  "alternate_ident": "GIG",
  "code_icao": "SBGL",
  "code_iata": "GIG",
  "code_lid": null,
  "name": "Rio de Janeiro/Galeao Intl",
  "type": "Airport",
  "elevation": 28,
  "city": "Rio de Janeiro",
  "state": "",
  "longitude": -43.243647,
  "latitude": -22.808903,
  "timezone": "America/Sao_Paulo",
  "country_code": "BR",
  "wiki_url": "https://en.wikipedia.org/wiki/Rio_de_Janeiro-Galeão_International_Airport",
  "airport_flights_url": "/airports/SBGL/flights",
  "alternatives": []
},
{
  "airport_code": "KGPT",
  "alternate_ident": "GPT",
  "code_icao": "KGPT",
  "code_iata": "GPT",
  "code_lid": "GPT",
  "name": "Gulfport-Biloxi Intl",
  "type": "Airport",
  "elevation": 28,
  "city": "Gulfport",
  "state": "MS",
  "longitude": -89.0700958,
  "latitude": 30.4072692,
  "timezone": "America/Chicago",
  "country_code": "US",
  "wiki_url": "http://en.wikipedia.org/wiki/Gulfport-Biloxi_International_Airport",
  "airport_flights_url": "/airports/KGPT/flights",
  "alternatives": []
},
{
  "airport_code": "KMDW",
  "alternate_ident": "MDW",
  "code_icao": "KMDW",
  "code_iata": "MDW",
  "code_lid": "MDW",
  "name": "Chicago Midway Intl",
  "type": "Airport",
  "elevation": 619,
  "city": "Chicago",
  "state": "IL",
  "longitude": -87.7524167,
  "latitude": 41.7859722,
  "timezone": "America/Chicago",
  "country_code": "US",
  "wiki_url": "http://en.wikipedia.org/wiki/Chicago_Midway_International_Airport",
  "airport_flights_url": "/airports/KMDW/flights",
  "alternatives": []
},
{
  "airport_code": "MGGT",
  "alternate_ident": "GUA",
  "code_icao": "MGGT",
  "code_iata": "GUA",
  "code_lid": null,
  "name": "La Aurora Int'l",
  "type": "Airport",
  "elevation": 4952,
  "city": "Guatemala City",
  "state": "",
  "longitude": -90.527475,
  "latitude": 14.583272,
  "timezone": "America/Guatemala",
  "country_code": "GT",
  "wiki_url": "https://en.wikipedia.org/wiki/La_Aurora_International_Airport",
  "airport_flights_url": "/airports/MGGT/flights",
  "alternatives": []
},
{
  "airport_code": "KTXK",
  "alternate_ident": "TXK",
  "code_icao": "KTXK",
  "code_iata": "TXK",
  "code_lid": "TXK",
  "name": "Texarkana Rgnl-Webb Fld",
  "type": "Airport",
  "elevation": 389,
  "city": "Texarkana",
  "state": "AR",
  "longitude": -93.9910278,
  "latitude": 33.4537222,
  "timezone": "America/Chicago",
  "country_code": "US",
  "wiki_url": "http://en.wikipedia.org/wiki/Texarkana_Regional-Webb_Field",
  "airport_flights_url": "/airports/KTXK/flights",
  "alternatives": []
},
{
  "airport_code": "SKBO",
  "alternate_ident": "BOG",
  "code_icao": "SKBO",
  "code_iata": "BOG",
  "code_lid": null,
  "name": "El Dorado Int'l",
  "type": "Airport",
  "elevation": 8361,
  "city": "Bogota",
  "state": "",
  "longitude": -74.146947,
  "latitude": 4.701594,
  "timezone": "America/Bogota",
  "country_code": "CO",
  "wiki_url": "https://en.wikipedia.org/wiki/El_Dorado_International_Airport",
  "airport_flights_url": "/airports/SKBO/flights",
  "alternatives": []
},
{
  "airport_code": "KPIB",
  "alternate_ident": "PIB",
  "code_icao": "KPIB",
  "code_iata": "PIB",
  "code_lid": "PIB",
  "name": "Hattiesburg/Laurel Rgnl",
  "type": "Airport",
  "elevation": 297,
  "city": "Hattiesburg-Laurel",
  "state": "MS",
  "longitude": -89.3370556,
  "latitude": 31.4671389,
  "timezone": "America/Chicago",
  "country_code": "US",
  "wiki_url": "http://en.wikipedia.org/wiki/Hattiesburg-Laurel_Regional_Airport",
  "airport_flights_url": "/airports/KPIB/flights",
  "alternatives": []
},
{
  "airport_code": "MHRO",
  "alternate_ident": "RTB",
  "code_icao": "MHRO",
  "code_iata": "RTB",
  "code_lid": null,
  "name": "Juan Manuel Galvez Int'l (Roatan Int'l)",
  "type": "Airport",
  "elevation": 18,
  "city": "Roatan",
  "state": "",
  "longitude": -86.522683,
  "latitude": 16.316814,
  "timezone": "America/Tegucigalpa",
  "country_code": "HN",
  "wiki_url": "https://en.wikipedia.org/wiki/Juan_Manuel_Gálvez_International_Airport",
  "airport_flights_url": "/airports/MHRO/flights",
  "alternatives": []
},
{
  "airport_code": "MMMY",
  "alternate_ident": "MTY",
  "code_icao": "MMMY",
  "code_iata": "MTY",
  "code_lid": null,
  "name": "General Mariano Escobedo International Airport",
  "type": "Airport",
  "elevation": 1278,
  "city": "Monterrey",
  "state": "Nuevo Leon",
  "longitude": -100.106878,
  "latitude": 25.778489,
  "timezone": "America/Monterrey",
  "country_code": "MX",
  "wiki_url": "https://en.wikipedia.org/wiki/General_Mariano_Escobedo_International_Airport",
  "airport_flights_url": "/airports/MMMY/flights",
  "alternatives": []
},
{
  "airport_code": "SAEZ",
  "alternate_ident": "EZE",
  "code_icao": "SAEZ",
  "code_iata": "EZE",
  "code_lid": null,
  "name": "Ministro Pistarini Int'l",
  "type": "Airport",
  "elevation": 67,
  "city": "Ezeiza",
  "state": "Buenos Aires Province",
  "longitude": -58.528803,
  "latitude": -34.823472,
  "timezone": "America/Argentina/Buenos_Aires",
  "country_code": "AR",
  "wiki_url": "https://en.wikipedia.org/wiki/Ministro_Pistarini_International_Airport",
  "airport_flights_url": "/airports/SAEZ/flights",
  "alternatives": []
},
{
  "airport_code": "KHRL",
  "alternate_ident": "HRL",
  "code_icao": "KHRL",
  "code_iata": "HRL",
  "code_lid": "HRL",
  "name": "Valley Intl",
  "type": "Airport",
  "elevation": 36,
  "city": "Harlingen",
  "state": "TX",
  "longitude": -97.6551389,
  "latitude": 26.2271111,
  "timezone": "America/Chicago",
  "country_code": "US",
  "wiki_url": "http://en.wikipedia.org/wiki/Valley_International_Airport",
  "airport_flights_url": "/airports/KHRL/flights",
  "alternatives": []
},
{
  "airport_code": "KBTR",
  "alternate_ident": "BTR",
  "code_icao": "KBTR",
  "code_iata": "BTR",
  "code_lid": "BTR",
  "name": "Baton Rouge Metro",
  "type": "Airport",
  "elevation": 69,
  "city": "Baton Rouge",
  "state": "LA",
  "longitude": -91.1498889,
  "latitude": 30.5329167,
  "timezone": "America/Chicago",
  "country_code": "US",
  "wiki_url": "http://en.wikipedia.org/wiki/Baton_Rouge_Metropolitan_Airport",
  "airport_flights_url": "/airports/KBTR/flights",
  "alternatives": []
},
{
  "airport_code": "MZBZ",
  "alternate_ident": "BZE",
  "code_icao": "MZBZ",
  "code_iata": "BZE",
  "code_lid": null,
  "name": "Philip S. W. Goldson Int'l",
  "type": "Airport",
  "elevation": 15,
  "city": "Belize",
  "state": "",
  "longitude": -88.308203,
  "latitude": 17.539144,
  "timezone": "America/Belize",
  "country_code": "BZ",
  "wiki_url": "https://en.wikipedia.org/wiki/Philip_S._W._Goldson_International_Airport",
  "airport_flights_url": "/airports/MZBZ/flights",
  "alternatives": []
},
{
  "airport_code": "KLRD",
  "alternate_ident": "LRD",
  "code_icao": "KLRD",
  "code_iata": "LRD",
  "code_lid": "LRD",
  "name": "Laredo Intl",
  "type": "Airport",
  "elevation": 508,
  "city": "Laredo",
  "state": "TX",
  "longitude": -99.4615833,
  "latitude": 27.5441944,
  "timezone": "America/Chicago",
  "country_code": "US",
  "wiki_url": "http://en.wikipedia.org/wiki/Laredo_International_Airport",
  "airport_flights_url": "/airports/KLRD/flights",
  "alternatives": []
},
{
  "airport_code": "KSHV",
  "alternate_ident": "SHV",
  "code_icao": "KSHV",
  "code_iata": "SHV",
  "code_lid": "SHV",
  "name": "Shreveport Rgnl",
  "type": "Airport",
  "elevation": 257,
  "city": "Shreveport",
  "state": "LA",
  "longitude": -93.82604,
  "latitude": 32.4465153,
  "timezone": "America/Chicago",
  "country_code": "US",
  "wiki_url": "http://en.wikipedia.org/wiki/Shreveport_Regional_Airport",
  "airport_flights_url": "/airports/KSHV/flights",
  "alternatives": []
},
{
  "airport_code": "SCEL",
  "alternate_ident": "SCL",
  "code_icao": "SCEL",
  "code_iata": "SCL",
  "code_lid": null,
  "name": "Comodoro Arturo Merino Benitez Int'l",
  "type": "Airport",
  "elevation": 1555,
  "city": "Santiago",
  "state": "",
  "longitude": -70.785803,
  "latitude": -33.392975,
  "timezone": "America/Santiago",
  "country_code": "CL",
  "wiki_url": "https://en.wikipedia.org/wiki/Comodoro_Arturo_Merino_Benítez_International_Airport",
  "airport_flights_url": "/airports/SCEL/flights",
  "alternatives": []
},
{
  "airport_code": "KLFT",
  "alternate_ident": "LFT",
  "code_icao": "KLFT",
  "code_iata": "LFT",
  "code_lid": "LFT",
  "name": "Lafayette Rgnl/Paul Fournet Fld",
  "type": "Airport",
  "elevation": 41,
  "city": "Lafayette",
  "state": "LA",
  "longitude": -91.98775,
  "latitude": 30.2050278,
  "timezone": "America/Chicago",
  "country_code": "US",
  "wiki_url": "http://en.wikipedia.org/wiki/Lafayette_Regional_Airport",
  "airport_flights_url": "/airports/KLFT/flights",
  "alternatives": []
},
{
  "airport_code": "KOKC",
  "alternate_ident": "OKC",
  "code_icao": "KOKC",
  "code_iata": "OKC",
  "code_lid": "OKC",
  "name": "ОOklahoma City",
  "type": "Airport",
  "elevation": 1295,
  "city": "Oklahoma City",
  "state": "OK",
  "longitude": -97.6007617,
  "latitude": 35.393074,
  "timezone": "America/Chicago",
  "country_code": "US",
  "wiki_url": "http://en.wikipedia.org/wiki/Will_Rogers_World_Airport",
  "airport_flights_url": "/airports/KOKC/flights",
  "alternatives": []
},
{
  "airport_code": "KLCH",
  "alternate_ident": "LCH",
  "code_icao": "KLCH",
  "code_iata": "LCH",
  "code_lid": "LCH",
  "name": "Lake Charles Rgnl",
  "type": "Airport",
  "elevation": 14,
  "city": "Lake Charles",
  "state": "LA",
  "longitude": -93.2234167,
  "latitude": 30.1260833,
  "timezone": "America/Chicago",
  "country_code": "US",
  "wiki_url": "http://en.wikipedia.org/wiki/Lake_Charles_Regional_Airport",
  "airport_flights_url": "/airports/KLCH/flights",
  "alternatives": []
},
{
  "airport_code": "KMOB",
  "alternate_ident": "MOB",
  "code_icao": "KMOB",
  "code_iata": "MOB",
  "code_lid": "MOB",
  "name": "Mobile Rgnl",
  "type": "Airport",
  "elevation": 218,
  "city": "Mobile",
  "state": "AL",
  "longitude": -88.2428333,
  "latitude": 30.6914167,
  "timezone": "America/Chicago",
  "country_code": "US",
  "wiki_url": "http://en.wikipedia.org/wiki/Mobile_Regional_Airport",
  "airport_flights_url": "/airports/KMOB/flights",
  "alternatives": []
},
{
  "airport_code": "MDPC",
  "alternate_ident": "PUJ",
  "code_icao": "MDPC",
  "code_iata": "PUJ",
  "code_lid": null,
  "name": "Пунта Кана",
  "type": "Airport",
  "elevation": 47,
  "city": "Punta Cana",
  "state": "",
  "longitude": -68.363431,
  "latitude": 18.567367,
  "timezone": "America/Santo_Domingo",
  "country_code": "DO",
  "wiki_url": "https://en.wikipedia.org/wiki/Punta_Cana_International_Airport",
  "airport_flights_url": "/airports/MDPC/flights",
  "alternatives": []
},
{
  "airport_code": "MROC",
  "alternate_ident": "SJO",
  "code_icao": "MROC",
  "code_iata": "SJO",
  "code_lid": null,
  "name": "Juan Santamaria Int'l",
  "type": "Airport",
  "elevation": 3021,
  "city": "San Jose",
  "state": "",
  "longitude": -84.208806,
  "latitude": 9.993861,
  "timezone": "America/Costa_Rica",
  "country_code": "CR",
  "wiki_url": "https://en.wikipedia.org/wiki/Juan_Santamaría_International_Airport",
  "airport_flights_url": "/airports/MROC/flights",
  "alternatives": []
},
{
  "airport_code": "SPJC",
  "alternate_ident": "LIM",
  "code_icao": "SPJC",
  "code_iata": "LIM",
  "code_lid": null,
  "name": "Jorge Chávez Int'l",
  "type": "Airport",
  "elevation": 113,
  "city": "",
  "state": "",
  "longitude": -77.114319,
  "latitude": -12.021889,
  "timezone": "America/Lima",
  "country_code": "PE",
  "wiki_url": "https://en.wikipedia.org/wiki/Jorge_Chávez_International_Airport",
  "airport_flights_url": "/airports/SPJC/flights",
  "alternatives": []
},
{
  "airport_code": "KHSV",
  "alternate_ident": "HSV",
  "code_icao": "KHSV",
  "code_iata": "HSV",
  "code_lid": "HSV",
  "name": "Huntsville Intl",
  "type": "Airport",
  "elevation": 628,
  "city": "Huntsville",
  "state": "AL",
  "longitude": -86.7750542,
  "latitude": 34.6371969,
  "timezone": "America/Chicago",
  "country_code": "US",
  "wiki_url": "http://en.wikipedia.org/wiki/Huntsville_International_Airport",
  "airport_flights_url": "/airports/KHSV/flights",
  "alternatives": []
},
{
  "airport_code": "KELP",
  "alternate_ident": "ELP",
  "code_icao": "KELP",
  "code_iata": "ELP",
  "code_lid": "ELP",
  "name": "El Paso Intl",
  "type": "Airport",
  "elevation": 3961,
  "city": "El Paso",
  "state": "TX",
  "longitude": -106.3763611,
  "latitude": 31.8073333,
  "timezone": "America/Denver",
  "country_code": "US",
  "wiki_url": "http://en.wikipedia.org/wiki/El_Paso_International_Airport",
  "airport_flights_url": "/airports/KELP/flights",
  "alternatives": []
},
{
  "airport_code": "KJAX",
  "alternate_ident": "JAX",
  "code_icao": "KJAX",
  "code_iata": "JAX",
  "code_lid": "JAX",
  "name": "Jacksonville Intl",
  "type": "Airport",
  "elevation": 29,
  "city": "Jacksonville",
  "state": "FL",
  "longitude": -81.6878467,
  "latitude": 30.4940456,
  "timezone": "America/New_York",
  "country_code": "US",
  "wiki_url": "http://en.wikipedia.org/wiki/Jacksonville_International_Airport",
  "airport_flights_url": "/airports/KJAX/flights",
  "alternatives": []
},
{
  "airport_code": "MRLB",
  "alternate_ident": "LIR",
  "code_icao": "MRLB",
  "code_iata": "LIR",
  "code_lid": null,
  "name": "Guanacaste",
  "type": "Airport",
  "elevation": 270,
  "city": "Liberia",
  "state": "Guanacaste",
  "longitude": -85.544408,
  "latitude": 10.593289,
  "timezone": "America/Costa_Rica",
  "country_code": "CR",
  "wiki_url": "https://en.wikipedia.org/wiki/Guanacaste_Airport",
  "airport_flights_url": "/airports/MRLB/flights",
  "alternatives": []
},
{
  "airport_code": "KBRO",
  "alternate_ident": "BRO",
  "code_icao": "KBRO",
  "code_iata": "BRO",
  "code_lid": "BRO",
  "name": "Brownsville Intl",
  "type": "Airport",
  "elevation": 22,
  "city": "Brownsville",
  "state": "TX",
  "longitude": -97.426,
  "latitude": 25.9061389,
  "timezone": "America/Chicago",
  "country_code": "US",
  "wiki_url": "http://en.wikipedia.org/wiki/Brownsville_International_Airport",
  "airport_flights_url": "/airports/KBRO/flights",
  "alternatives": []
},
{
  "airport_code": "TTPP",
  "alternate_ident": "POS",
  "code_icao": "TTPP",
  "code_iata": "POS",
  "code_lid": null,
  "name": "Piarco Int'l",
  "type": "Airport",
  "elevation": 57,
  "city": "Port of Spain TT",
  "state": "Trinidad",
  "longitude": -61.337242,
  "latitude": 10.595369,
  "timezone": "America/Port_of_Spain",
  "country_code": "TT",
  "wiki_url": "https://en.wikipedia.org/wiki/Piarco_International_Airport",
  "airport_flights_url": "/airports/TTPP/flights",
  "alternatives": []
},
{
  "airport_code": "KMAF",
  "alternate_ident": "MAF",
  "code_icao": "KMAF",
  "code_iata": "MAF",
  "code_lid": "MAF",
  "name": "Midland Intl Air and Space Port",
  "type": "Airport",
  "elevation": 2872,
  "city": "Midland",
  "state": "TX",
  "longitude": -102.2019167,
  "latitude": 31.9425278,
  "timezone": "America/Chicago",
  "country_code": "US",
  "wiki_url": "http://en.wikipedia.org/wiki/Midland_International_Airport",
  "airport_flights_url": "/airports/KMAF/flights",
  "alternatives": []
},
{
  "airport_code": "KVCT",
  "alternate_ident": "VCT",
  "code_icao": "KVCT",
  "code_iata": "VCT",
  "code_lid": "VCT",
  "name": "Victoria Rgnl",
  "type": "Airport",
  "elevation": 115,
  "city": "Victoria",
  "state": "TX",
  "longitude": -96.9187322,
  "latitude": 28.8542058,
  "timezone": "America/Chicago",
  "country_code": "US",
  "wiki_url": "http://en.wikipedia.org/wiki/Victoria_Regional_Airport",
  "airport_flights_url": "/airports/KVCT/flights",
  "alternatives": []
}
]
